{
  "TESLA_RESTAURANT": [
    {
      "base_dt": "20240806",
      "bookmark_id": 1919477482,
      "name": "허생원봉평메밀국수",
      "longitude": 128.370713,
      "latitude": 37.61218,
      "type": "place",
      "sid": 13321079,
      "address": "강원 평창군 봉평면 이효석길 134",
      "mcid": "DINING",
      "mcid_name": "음식점",
      "available": 1
    },
    {
      "base_dt": "20240806",
      "bookmark_id": 1919472621,
      "name": "부산가야밀면",
      "longitude": 129.33003,
      "latitude": 36.0483205,
      "type": "place",
      "sid": 38018832,
      "address": "경북 포항시 북구 흥해읍 달전로 36-2",
      "mcid": "DINING",
      "mcid_name": "음식점",
      "available": 1
    },
    {
      "base_dt": "20240806",
      "bookmark_id": 1919468701,
      "name": "연산숯불왕갈비",
      "longitude": 129.1574629,
      "latitude": 35.1619099,
      "type": "place",
      "sid": 1770953312,
      "address": "부산 해운대구 구남로8번길 39",
      "mcid": "DINING",
      "mcid_name": "음식점",
      "available": 1
    },
    {
      "base_dt": "20240806",
      "bookmark_id": 1919466735,
      "name": "풍년집큰아들네",
      "longitude": 127.018514,
      "latitude": 37.5133463,
      "type": "place",
      "sid": 1160598055,
      "address": "서울 서초구 신반포로47길 68",
      "mcid": "DINING",
      "mcid_name": "음식점",
      "available": 1
    },
    {
      "base_dt": "20240806",
      "bookmark_id": 1919465616,
      "name": "오구이",
      "longitude": 126.5760666,
      "latitude": 35.9461828,
      "type": "place",
      "sid": 1091046483,
      "address": "전북 군산시 새만금산단1로 3",
      "mcid": "DINING",
      "mcid_name": "음식점",
      "available": 1
    },
    {
      "base_dt": "20240806",
      "bookmark_id": 1919464726,
      "name": "코지하우스 울산태화강국가정원점",
      "longitude": 129.295384,
      "latitude": 35.5496682,
      "type": "place",
      "sid": 1962886734,
      "address": "울산 중구 태화강국가정원길 187",
      "mcid": "DINING",
      "mcid_name": "음식점",
      "available": 1
    },
    {
      "base_dt": "20240806",
      "bookmark_id": 1919463718,
      "name": "화옥",
      "longitude": 127.0778963,
      "latitude": 37.2531993,
      "type": "place",
      "sid": 1736375485,
      "address": "경기 수원시 영통구 청명남로50번길 21-2",
      "mcid": "BAR",
      "mcid_name": "BAR",
      "available": 1
    },
    {
      "base_dt": "20240806",
      "bookmark_id": 1919462046,
      "name": "안성또순이",
      "longitude": 126.9716379,
      "latitude": 37.5716579,
      "type": "place",
      "sid": 19867522,
      "address": "서울 종로구 경희궁길 18",
      "mcid": "DINING",
      "mcid_name": "음식점",
      "available": 1
    },
    {
      "base_dt": "20240806",
      "bookmark_id": 1919460827,
      "name": "진교면 술상전어판매장",
      "longitude": 127.9219099,
      "latitude": 34.9885345,
      "type": "place",
      "sid": 1323666984,
      "address": "경남 하동군 진교면 술상길 186-1",
      "mcid": "SHOPPING",
      "mcid_name": "쇼핑",
      "available": 1
    },
    {
      "base_dt": "20240806",
      "bookmark_id": 1919459624,
      "name": "타마고",
      "longitude": 126.9862433,
      "latitude": 37.5661695,
      "type": "place",
      "sid": 1081165758,
      "address": "서울 중구 을지로 88",
      "mcid": "DINING",
      "mcid_name": "음식점",
      "available": 1
    },
    {
      "base_dt": "20240806",
      "bookmark_id": 1919458796,
      "name": "최고의 한우 명우",
      "longitude": 127.0180399,
      "latitude": 37.5157657,
      "type": "place",
      "sid": 33585987,
      "address": "서울 서초구 나루터로 75",
      "mcid": "DINING",
      "mcid_name": "음식점",
      "available": 1
    },
    {
      "base_dt": "20240806",
      "bookmark_id": 1919457582,
      "name": "소문난팥빙수 본점",
      "longitude": 129.113397,
      "latitude": 35.1241798,
      "type": "place",
      "sid": 13492510,
      "address": "부산 남구 동명로145번길 102",
      "mcid": "CAFE",
      "mcid_name": "카페",
      "available": 1
    },
    {
      "base_dt": "20240806",
      "bookmark_id": 1919455068,
      "name": "도르멍칼국수",
      "longitude": 126.7065433,
      "latitude": 33.509924,
      "type": "place",
      "sid": 1372411878,
      "address": "제주 제주시 조천읍 중산간동로 1305",
      "mcid": "DINING",
      "mcid_name": "음식점",
      "available": 1
    },
    {
      "base_dt": "20240806",
      "bookmark_id": 1919454277,
      "name": "저스트 아웃",
      "longitude": 126.7828553,
      "latitude": 37.6719068,
      "type": "place",
      "sid": 1343646117,
      "address": "경기 고양시 일산동구 산두로 167-19",
      "mcid": "DINING",
      "mcid_name": "음식점",
      "available": 1
    },
    {
      "base_dt": "20240806",
      "bookmark_id": 1919451604,
      "name": "므므흐스 버거 왜관",
      "longitude": 128.4293218,
      "latitude": 35.9928514,
      "type": "place",
      "sid": 1937765612,
      "address": "경북 칠곡군 왜관읍 매원1길 9",
      "mcid": "DINING",
      "mcid_name": "음식점",
      "available": 1
    },
    {
      "base_dt": "20240806",
      "bookmark_id": 1919450013,
      "name": "Workshop by 배스킨라빈스",
      "longitude": 127.0407698,
      "latitude": 37.485753,
      "type": "place",
      "sid": 1860663446,
      "address": "서울 강남구 논현로 201",
      "mcid": "CAFE",
      "mcid_name": "카페",
      "available": 1
    },
    {
      "base_dt": "20240806",
      "bookmark_id": 1919448327,
      "name": "양평신내서울해장국 본점",
      "longitude": 127.4658585,
      "latitude": 37.5048355,
      "type": "place",
      "sid": 1921671458,
      "address": "경기 양평군 양평읍 안산길 7",
      "mcid": "DINING",
      "mcid_name": "음식점",
      "available": 1
    },
    {
      "base_dt": "20240806",
      "bookmark_id": 1919447479,
      "name": "홍길동생선구이",
      "longitude": 126.7493809,
      "latitude": 37.6704901,
      "type": "place",
      "sid": 18413894,
      "address": "경기 고양시 일산서구 호수로838번길 7-10",
      "mcid": "DINING",
      "mcid_name": "음식점",
      "available": 1
    },
    {
      "base_dt": "20240806",
      "bookmark_id": 1919445130,
      "name": "서울맛집",
      "longitude": 127.0540167,
      "latitude": 37.5383073,
      "type": "place",
      "sid": 34787360,
      "address": "서울 성동구 성덕정15길 6-9",
      "mcid": "DINING",
      "mcid_name": "음식점",
      "available": 1
    },
    {
      "base_dt": "20240806",
      "bookmark_id": 1919443153,
      "name": "덴스모크",
      "longitude": 127.3489468,
      "latitude": 36.4989967,
      "type": "place",
      "sid": 1202866350,
      "address": "세종 금남면 금병로 993",
      "mcid": "DINING",
      "mcid_name": "음식점",
      "available": 1
    },
    {
      "base_dt": "20240806",
      "bookmark_id": 1919442181,
      "name": "선영식당",
      "longitude": 127.2110841,
      "latitude": 36.5016051,
      "type": "place",
      "sid": 32727634,
      "address": "세종 장군면 대교길 11",
      "mcid": "DINING",
      "mcid_name": "음식점",
      "available": 1
    },
    {
      "base_dt": "20240806",
      "bookmark_id": 1919439872,
      "name": "문산순대국",
      "longitude": 126.7702457,
      "latitude": 37.6846942,
      "type": "place",
      "sid": 230653985,
      "address": "경기 고양시 일산서구 고양대로 667-5",
      "mcid": "DINING",
      "mcid_name": "음식점",
      "available": 1
    },
    {
      "base_dt": "20240806",
      "bookmark_id": 1919437138,
      "name": "꼬맛 꽈배기",
      "longitude": 127.4364964,
      "latitude": 37.2827539,
      "type": "place",
      "sid": 37741604,
      "address": "경기 이천시 영창로 121",
      "mcid": "CAFE",
      "mcid_name": "카페",
      "available": 1
    },
    {
      "base_dt": "20240806",
      "bookmark_id": 1919428790,
      "name": "더뷔페 앳 인터불고",
      "longitude": 128.6600932,
      "latitude": 35.8741837,
      "type": "place",
      "sid": 31949443,
      "address": "대구 수성구 팔현길 212",
      "mcid": "DINING",
      "mcid_name": "음식점",
      "available": 1
    },
    {
      "base_dt": "20240806",
      "bookmark_id": 1919426388,
      "name": "소금집델리 센터필드점",
      "longitude": 127.0414621,
      "latitude": 37.5033701,
      "type": "place",
      "sid": 1672512567,
      "address": "서울 강남구 테헤란로 231",
      "mcid": "DINING",
      "mcid_name": "음식점",
      "available": 1
    },
    {
      "base_dt": "20240806",
      "bookmark_id": 1919425222,
      "name": "동발국수",
      "longitude": 127.9224247,
      "latitude": 34.9096417,
      "type": "place",
      "sid": 1338695981,
      "address": "경남 남해군 설천면 강진로 159-4",
      "mcid": "DINING",
      "mcid_name": "음식점",
      "available": 1
    },
    {
      "base_dt": "20240806",
      "bookmark_id": 1919423636,
      "name": "버던트",
      "longitude": 128.6874205,
      "latitude": 35.6838764,
      "type": "place",
      "sid": 1753821703,
      "address": "경북 청도군 이서면 연지로 330",
      "mcid": "CAFE",
      "mcid_name": "카페",
      "available": 1
    },
    {
      "base_dt": "20240806",
      "bookmark_id": 1919422505,
      "name": "매란방 왕십리본점",
      "longitude": 127.0384279,
      "latitude": 37.5615131,
      "type": "place",
      "sid": 37883589,
      "address": "서울 성동구 왕십리광장로 17",
      "mcid": "DINING",
      "mcid_name": "음식점",
      "available": 1
    },
    {
      "base_dt": "20240806",
      "bookmark_id": 1919420981,
      "name": "마야돈까스",
      "longitude": 127.50861,
      "latitude": 37.2407217,
      "type": "place",
      "sid": 1054502348,
      "address": "경기 이천시 부발읍 경충대로 1867-1",
      "mcid": "DINING",
      "mcid_name": "음식점",
      "available": 1
    },
    {
      "base_dt": "20240806",
      "bookmark_id": 1919419654,
      "name": "비스타 워커힐 서울 피자힐",
      "longitude": 127.1091729,
      "latitude": 37.5539112,
      "type": "place",
      "sid": 11611438,
      "address": "서울 광진구 워커힐로 177",
      "mcid": "DINING",
      "mcid_name": "음식점",
      "available": 1
    },
    {
      "base_dt": "20240806",
      "bookmark_id": 1919417844,
      "name": "산촌생등심",
      "longitude": 128.6213005,
      "latitude": 38.1195031,
      "type": "place",
      "sid": 15082203,
      "address": "강원 양양군 강현면 안골로 58",
      "mcid": "DINING",
      "mcid_name": "음식점",
      "available": 1
    },
    {
      "base_dt": "20240806",
      "bookmark_id": 1919414991,
      "name": "속초생대구",
      "longitude": 128.5962265,
      "latitude": 38.2147431,
      "type": "place",
      "sid": 19480693,
      "address": "강원 속초시 영랑해안3길 14",
      "mcid": "DINING",
      "mcid_name": "음식점",
      "available": 1
    },
    {
      "base_dt": "20240806",
      "bookmark_id": 1919413093,
      "name": "동래삼계탕",
      "longitude": 129.131511,
      "latitude": 35.172903,
      "type": "place",
      "sid": 13573736,
      "address": "부산 해운대구 센텀5로 55",
      "mcid": "DINING",
      "mcid_name": "음식점",
      "available": 1
    },
    {
      "base_dt": "20240806",
      "bookmark_id": 1919409575,
      "name": "남촌칼국수",
      "longitude": 127.5083423,
      "latitude": 37.2415991,
      "type": "place",
      "sid": 30992828,
      "address": "경기 이천시 부발읍 경충대로 1872",
      "mcid": "DINING",
      "mcid_name": "음식점",
      "available": 1
    },
    {
      "base_dt": "20240806",
      "bookmark_id": 1919407417,
      "name": "윤가곰탕",
      "longitude": 127.0708022,
      "latitude": 37.2525337,
      "type": "place",
      "sid": 21167658,
      "address": "경기 수원시 영통구 매영로345번길 7",
      "mcid": "DINING",
      "mcid_name": "음식점",
      "available": 1
    },
    {
      "base_dt": "20240806",
      "bookmark_id": 1919406240,
      "name": "전주꽃미남총각네게장",
      "longitude": 127.075868,
      "latitude": 35.8486724,
      "type": "place",
      "sid": 31037145,
      "address": "전북 전주시 덕진구 만성북3길 11",
      "mcid": "DINING",
      "mcid_name": "음식점",
      "available": 1
    },
    {
      "base_dt": "20240806",
      "bookmark_id": 1919404918,
      "name": "남도랑",
      "longitude": 126.4293618,
      "latitude": 34.8046163,
      "type": "place",
      "sid": 1315454492,
      "address": "전남 목포시 옥암로54번길 5",
      "mcid": "DINING",
      "mcid_name": "음식점",
      "available": 1
    },
    {
      "base_dt": "20240806",
      "bookmark_id": 1919401860,
      "name": "지칸 삼성2호점",
      "longitude": 127.0652896,
      "latitude": 37.5163169,
      "type": "place",
      "sid": 1814028678,
      "address": "서울 강남구 봉은사로111길 18",
      "mcid": "BAR",
      "mcid_name": "BAR",
      "available": 1
    },
    {
      "base_dt": "20240806",
      "bookmark_id": 1919400634,
      "name": "단풍나무집",
      "longitude": 126.4767543,
      "latitude": 36.8018433,
      "type": "place",
      "sid": 13185856,
      "address": "충남 서산시 잠온길 190-31",
      "mcid": "DINING",
      "mcid_name": "음식점",
      "available": 1
    },
    {
      "base_dt": "20240806",
      "bookmark_id": 1919399437,
      "name": "빛의라운지 워커힐지점",
      "longitude": 127.1107738,
      "latitude": 37.555169,
      "type": "place",
      "sid": 1767557389,
      "address": "서울 광진구 워커힐로 177",
      "mcid": "CAFE",
      "mcid_name": "카페",
      "available": 1
    },
    {
      "base_dt": "20240806",
      "bookmark_id": 1919397306,
      "name": "할매재첩국집",
      "longitude": 128.9862105,
      "latitude": 35.1932712,
      "type": "place",
      "sid": 11600631,
      "address": "부산 사상구 낙동대로1530번길 20-15",
      "mcid": "DINING",
      "mcid_name": "음식점",
      "available": 1
    },
    {
      "base_dt": "20240806",
      "bookmark_id": 1919395500,
      "name": "LA돈까스",
      "longitude": 129.230116,
      "latitude": 35.848332,
      "type": "place",
      "sid": 32654907,
      "address": "경북 경주시 초당길143번길 26",
      "mcid": "DINING",
      "mcid_name": "음식점",
      "available": 1
    },
    {
      "base_dt": "20240806",
      "bookmark_id": 1919391390,
      "name": "장어의 힘",
      "longitude": 128.6180277,
      "latitude": 35.9888839,
      "type": "place",
      "sid": 1197985061,
      "address": "대구 동구 팔공산로 310",
      "mcid": "DINING",
      "mcid_name": "음식점",
      "available": 1
    },
    {
      "base_dt": "20240806",
      "bookmark_id": 1919388871,
      "name": "호운",
      "longitude": 127.3743719,
      "latitude": 37.304976,
      "type": "place",
      "sid": 1417314194,
      "address": "경기 이천시 신둔면 황무로 200",
      "mcid": "DINING",
      "mcid_name": "음식점",
      "available": 1
    },
    {
      "base_dt": "20240806",
      "bookmark_id": 1919386700,
      "name": "아키라",
      "longitude": 129.3336418,
      "latitude": 35.5394249,
      "type": "place",
      "sid": 33857744,
      "address": "울산 남구 왕생로62번길 15-1",
      "mcid": "DINING",
      "mcid_name": "음식점",
      "available": 1
    },
    {
      "base_dt": "20240806",
      "bookmark_id": 1919382562,
      "name": "만월당",
      "longitude": 126.7929767,
      "latitude": 33.5561549,
      "type": "place",
      "sid": 1664779171,
      "address": "제주 제주시 구좌읍 월정1길 56",
      "mcid": "DINING",
      "mcid_name": "음식점",
      "available": 1
    },
    {
      "base_dt": "20240806",
      "bookmark_id": 1876871942,
      "name": "마리피자",
      "longitude": 128.002868,
      "latitude": 34.8316632,
      "type": "place",
      "sid": 1486727681,
      "address": "경남 남해군 동부대로1876번다길 7",
      "mcid": "DINING",
      "mcid_name": "음식점",
      "available": 1
    },
    {
      "base_dt": "20240806",
      "bookmark_id": 1919376672,
      "name": "성수망치버거",
      "longitude": 127.0475843,
      "latitude": 37.5396236,
      "type": "place",
      "sid": 1393101675,
      "address": "서울 성동구 성덕정3길 8",
      "mcid": "DINING",
      "mcid_name": "음식점",
      "available": 1
    },
    {
      "base_dt": "20240806",
      "bookmark_id": 1919374451,
      "name": "스파게티스토리",
      "longitude": 127.0688444,
      "latitude": 37.4893394,
      "type": "place",
      "sid": 37615866,
      "address": "서울 강남구 개포로 512",
      "mcid": "DINING",
      "mcid_name": "음식점",
      "available": 1
    },
    {
      "base_dt": "20240806",
      "bookmark_id": 1919371918,
      "name": "카페드첼시",
      "longitude": 126.5768366,
      "latitude": 37.6915837,
      "type": "place",
      "sid": 1719935563,
      "address": "경기 김포시 통진읍 김포대로2435번길 107-20",
      "mcid": "CAFE",
      "mcid_name": "카페",
      "available": 1
    },
    {
      "base_dt": "20240806",
      "bookmark_id": 1919370507,
      "name": "타코마이너",
      "longitude": 127.0538648,
      "latitude": 37.5432593,
      "type": "place",
      "sid": 1235064714,
      "address": "서울 성동구 연무장길 39-13",
      "mcid": "DINING",
      "mcid_name": "음식점",
      "available": 1
    },
    {
      "base_dt": "20240806",
      "bookmark_id": 1919368348,
      "name": "진작",
      "longitude": 126.9908216,
      "latitude": 37.56403,
      "type": "place",
      "sid": 1323525758,
      "address": "서울 중구 수표로12길 12",
      "mcid": "DINING",
      "mcid_name": "음식점",
      "available": 1
    },
    {
      "base_dt": "20240806",
      "bookmark_id": 1897034515,
      "name": "명화식육식당",
      "longitude": 126.7222856,
      "latitude": 35.1229514,
      "type": "place",
      "sid": 19877647,
      "address": "광주광역시 광산구 명화동",
      "mcid": "DINING",
      "mcid_name": "음식점",
      "available": 1
    },
    {
      "base_dt": "20240806",
      "bookmark_id": 1897033625,
      "name": "송원식육식당",
      "longitude": 126.7609742,
      "latitude": 35.124031,
      "type": "place",
      "sid": 15992513,
      "address": "광주광역시 광산구 옥동",
      "mcid": "DINING",
      "mcid_name": "음식점",
      "available": 1
    },
    {
      "base_dt": "20240806",
      "bookmark_id": 1897032627,
      "name": "나주곰탕하얀집 운암점",
      "longitude": 126.8722614,
      "latitude": 35.1829217,
      "type": "place",
      "sid": 20272406,
      "address": "광주 북구 북문대로 160",
      "mcid": "DINING",
      "mcid_name": "음식점",
      "available": 1
    },
    {
      "base_dt": "20240806",
      "bookmark_id": 1897030587,
      "name": "팔도강산",
      "longitude": 126.9429504,
      "latitude": 35.1499554,
      "type": "place",
      "sid": 15996886,
      "address": "광주 동구 지호로127번길 9",
      "mcid": "DINING",
      "mcid_name": "음식점",
      "available": 1
    },
    {
      "base_dt": "20240806",
      "bookmark_id": 1897029842,
      "name": "도리스 파티세리",
      "longitude": 128.5897934,
      "latitude": 38.203864,
      "type": "place",
      "sid": 1574212659,
      "address": "강원 속초시 중앙로147번길 26",
      "mcid": "CAFE",
      "mcid_name": "카페",
      "available": 1
    },
    {
      "base_dt": "20240806",
      "bookmark_id": 1897028728,
      "name": "한우마을 남양점",
      "longitude": 126.8550685,
      "latitude": 37.2105272,
      "type": "place",
      "sid": 19782383,
      "address": "경기 화성시 남양읍 현대기아로 703-8",
      "mcid": "DINING",
      "mcid_name": "음식점",
      "available": 1
    },
    {
      "base_dt": "20240806",
      "bookmark_id": 1897027746,
      "name": "보키오반자이",
      "longitude": 129.2268267,
      "latitude": 35.2197899,
      "type": "place",
      "sid": 1421959287,
      "address": "부산 기장군 기장읍 연화길 70",
      "mcid": "DINING",
      "mcid_name": "음식점",
      "available": 1
    },
    {
      "base_dt": "20240806",
      "bookmark_id": 1897026974,
      "name": "예스닭강정 중앙시장직영점",
      "longitude": 128.5888547,
      "latitude": 38.205615,
      "type": "place",
      "sid": 1027339689,
      "address": "강원 속초시 수복로 201",
      "mcid": "DINING",
      "mcid_name": "음식점",
      "available": 1
    },
    {
      "base_dt": "20240806",
      "bookmark_id": 1897025786,
      "name": "마루심 판교점",
      "longitude": 127.1133566,
      "latitude": 37.3969532,
      "type": "place",
      "sid": 1864051228,
      "address": "경기 성남시 분당구 동판교로177번길 25",
      "mcid": "DINING",
      "mcid_name": "음식점",
      "available": 1
    },
    {
      "base_dt": "20240806",
      "bookmark_id": 1897024651,
      "name": "합천식당",
      "longitude": 129.0624456,
      "latitude": 35.1415222,
      "type": "place",
      "sid": 16487147,
      "address": "부산 부산진구 자유평화로 23",
      "mcid": "DINING",
      "mcid_name": "음식점",
      "available": 1
    },
    {
      "base_dt": "20240806",
      "bookmark_id": 1897023694,
      "name": "초능력타코야끼",
      "longitude": 127.019662,
      "latitude": 37.5546064,
      "type": "place",
      "sid": 1126931033,
      "address": "서울 성동구 금호산길 71",
      "mcid": "DINING",
      "mcid_name": "음식점",
      "available": 1
    },
    {
      "base_dt": "20240806",
      "bookmark_id": 1897022891,
      "name": "백도막국수",
      "longitude": 128.5255314,
      "latitude": 38.3239742,
      "type": "place",
      "sid": 37869707,
      "address": "강원 고성군 죽왕면 동해대로 5845",
      "mcid": "DINING",
      "mcid_name": "음식점",
      "available": 1
    },
    {
      "base_dt": "20240806",
      "bookmark_id": 1897022261,
      "name": "선재",
      "longitude": 127.0526054,
      "latitude": 37.4884271,
      "type": "place",
      "sid": 1438780740,
      "address": "서울 강남구 언주로30길 27",
      "mcid": "DINING",
      "mcid_name": "음식점",
      "available": 1
    },
    {
      "base_dt": "20240806",
      "bookmark_id": 1896714007,
      "name": "릿잇타미",
      "longitude": 126.9838508,
      "latitude": 37.4783927,
      "type": "place",
      "sid": 1019138045,
      "address": "서울 서초구 방배천로2안길 31",
      "mcid": "DINING",
      "mcid_name": "음식점",
      "available": 1
    },
    {
      "base_dt": "20240806",
      "bookmark_id": 1896712503,
      "name": "우판등심 수원점",
      "longitude": 127.0455147,
      "latitude": 37.2484195,
      "type": "place",
      "sid": 36090522,
      "address": "경기 수원시 영통구 권선로908번길 10",
      "mcid": "DINING",
      "mcid_name": "음식점",
      "available": 1
    },
    {
      "base_dt": "20240806",
      "bookmark_id": 1896711572,
      "name": "왕서방중화요리",
      "longitude": 126.2955543,
      "latitude": 36.674784,
      "type": "place",
      "sid": 17675755,
      "address": "충남 태안군 남면 남면로 88",
      "mcid": "DINING",
      "mcid_name": "음식점",
      "available": 1
    },
    {
      "base_dt": "20240806",
      "bookmark_id": 1896710336,
      "name": "굴예찬",
      "longitude": 127.01589,
      "latitude": 37.564744,
      "type": "place",
      "sid": 13161228,
      "address": "서울 중구 다산로 243",
      "mcid": "DINING",
      "mcid_name": "음식점",
      "available": 1
    },
    {
      "base_dt": "20240806",
      "bookmark_id": 1896708812,
      "name": "꽁커피",
      "longitude": 126.6221634,
      "latitude": 37.472874,
      "type": "place",
      "sid": 1394550875,
      "address": "인천 중구 신포로27번길 61",
      "mcid": "CAFE",
      "mcid_name": "카페",
      "available": 1
    },
    {
      "base_dt": "20240806",
      "bookmark_id": 1896707416,
      "name": "토담식당",
      "longitude": 128.1890838,
      "latitude": 36.107499,
      "type": "place",
      "sid": 37194378,
      "address": "경북 김천시 남면 옥산길 34",
      "mcid": "DINING",
      "mcid_name": "음식점",
      "available": 1
    },
    {
      "base_dt": "20240806",
      "bookmark_id": 1896706006,
      "name": "시옹마오 성수점",
      "longitude": 127.0544584,
      "latitude": 37.5434823,
      "type": "place",
      "sid": 1105418222,
      "address": "서울 성동구 연무장7길 7-1",
      "mcid": "DINING",
      "mcid_name": "음식점",
      "available": 1
    },
    {
      "base_dt": "20240806",
      "bookmark_id": 1896704893,
      "name": "동해막국수",
      "longitude": 126.370441,
      "latitude": 37.4616084,
      "type": "place",
      "sid": 12016389,
      "address": "인천 중구 용유서로479번길 16",
      "mcid": "DINING",
      "mcid_name": "음식점",
      "available": 1
    },
    {
      "base_dt": "20240806",
      "bookmark_id": 1896703144,
      "name": "설마중",
      "longitude": 127.0403801,
      "latitude": 37.4850352,
      "type": "place",
      "sid": 36122875,
      "address": "서울 서초구 남부순환로 2648",
      "mcid": "DINING",
      "mcid_name": "음식점",
      "available": 1
    },
    {
      "base_dt": "20240806",
      "bookmark_id": 1896700850,
      "name": "인덕원비빔국수 양재직영점",
      "longitude": 127.0411108,
      "latitude": 37.4852505,
      "type": "place",
      "sid": 1090964067,
      "address": "서울 서초구 남부순환로 2656",
      "mcid": "DINING",
      "mcid_name": "음식점",
      "available": 1
    },
    {
      "base_dt": "20240806",
      "bookmark_id": 1896694993,
      "name": "리타르단도",
      "longitude": 127.0544881,
      "latitude": 37.5390907,
      "type": "place",
      "sid": 1867435170,
      "address": "서울 성동구 뚝섬로 393",
      "mcid": "DINING",
      "mcid_name": "음식점",
      "available": 1
    },
    {
      "base_dt": "20240806",
      "bookmark_id": 1896692996,
      "name": "행복한식당",
      "longitude": 127.0591309,
      "latitude": 37.5466447,
      "type": "place",
      "sid": 1973621319,
      "address": "서울 성동구 아차산로9길 30",
      "mcid": "DINING",
      "mcid_name": "음식점",
      "available": 1
    },
    {
      "base_dt": "20240806",
      "bookmark_id": 1896688075,
      "name": "거대곰탕",
      "longitude": 129.1504025,
      "latitude": 35.1582036,
      "type": "place",
      "sid": 1882773321,
      "address": "부산 해운대구 해운대해변로 163",
      "mcid": "DINING",
      "mcid_name": "음식점",
      "available": 1
    },
    {
      "base_dt": "20240806",
      "bookmark_id": 1896686094,
      "name": "작은도쿄",
      "longitude": 126.9704661,
      "latitude": 37.5399218,
      "type": "place",
      "sid": 1914072541,
      "address": "서울 용산구 원효로90길 11",
      "mcid": "DINING",
      "mcid_name": "음식점",
      "available": 1
    },
    {
      "base_dt": "20240806",
      "bookmark_id": 1896660945,
      "name": "농부네수제갈비",
      "longitude": 126.9993557,
      "latitude": 37.4235274,
      "type": "place",
      "sid": 36995431,
      "address": "경기 과천시 새빛로 25",
      "mcid": "DINING",
      "mcid_name": "음식점",
      "available": 1
    },
    {
      "base_dt": "20240806",
      "bookmark_id": 1896659269,
      "name": "토속촌 삼계탕",
      "longitude": 126.9716148,
      "latitude": 37.5776587,
      "type": "place",
      "sid": 35597924,
      "address": "서울 종로구 자하문로5길 5",
      "mcid": "DINING",
      "mcid_name": "음식점",
      "available": 1
    },
    {
      "base_dt": "20240806",
      "bookmark_id": 1896658485,
      "name": "한우암소베트남쌀국수",
      "longitude": 127.172806,
      "latitude": 37.3315174,
      "type": "place",
      "sid": 1254261035,
      "address": "경기 용인시 처인구 모현읍 능원로 93",
      "mcid": "DINING",
      "mcid_name": "음식점",
      "available": 1
    },
    {
      "base_dt": "20240806",
      "bookmark_id": 1896657725,
      "name": "국수파는집",
      "longitude": 126.7323932,
      "latitude": 37.7720885,
      "type": "place",
      "sid": 1069758885,
      "address": "경기 파주시 금물다리길 12",
      "mcid": "DINING",
      "mcid_name": "음식점",
      "available": 1
    },
    {
      "base_dt": "20240806",
      "bookmark_id": 1896656632,
      "name": "봉계한우 로스구이 센텀본점",
      "longitude": 129.1262513,
      "latitude": 35.1751756,
      "type": "place",
      "sid": 1267617749,
      "address": "부산 해운대구 센텀중앙로 90",
      "mcid": "DINING",
      "mcid_name": "음식점",
      "available": 1
    },
    {
      "base_dt": "20240806",
      "bookmark_id": 1896655736,
      "name": "최미삼순대국 능동점",
      "longitude": 127.055116,
      "latitude": 37.211284,
      "type": "place",
      "sid": 31610996,
      "address": "경기 화성시 동탄지성로 187",
      "mcid": "DINING",
      "mcid_name": "음식점",
      "available": 1
    },
    {
      "base_dt": "20240806",
      "bookmark_id": 1896654747,
      "name": "일흥불고기",
      "longitude": 127.7273803,
      "latitude": 37.8819127,
      "type": "place",
      "sid": 15040585,
      "address": "강원 춘천시 서부대성로44번길 15-1",
      "mcid": "DINING",
      "mcid_name": "음식점",
      "available": 1
    },
    {
      "base_dt": "20240806",
      "bookmark_id": 1896653754,
      "name": "벽강물회식당",
      "longitude": 128.5826359,
      "latitude": 35.8893331,
      "type": "place",
      "sid": 32050585,
      "address": "대구 북구 침산남로 62",
      "mcid": "DINING",
      "mcid_name": "음식점",
      "available": 1
    },
    {
      "base_dt": "20240806",
      "bookmark_id": 1896652873,
      "name": "한성삼계탕",
      "longitude": 126.897853,
      "latitude": 37.5261479,
      "type": "place",
      "sid": 13185060,
      "address": "서울 영등포구 국회대로36길 14",
      "mcid": "DINING",
      "mcid_name": "음식점",
      "available": 1
    },
    {
      "base_dt": "20240806",
      "bookmark_id": 1896651440,
      "name": "강원도막국수",
      "longitude": 127.0893606,
      "latitude": 37.3473612,
      "type": "place",
      "sid": 19167195,
      "address": "경기 용인시 수지구 고기로129번길 6",
      "mcid": "DINING",
      "mcid_name": "음식점",
      "available": 1
    },
    {
      "base_dt": "20240806",
      "bookmark_id": 1896650634,
      "name": "숨숨집",
      "longitude": 126.927622,
      "latitude": 35.1493886,
      "type": "place",
      "sid": 1547364364,
      "address": "광주 동구 동계천로 167-5",
      "mcid": "BAR",
      "mcid_name": "BAR",
      "available": 1
    },
    {
      "base_dt": "20240806",
      "bookmark_id": 1896649751,
      "name": "고래명가",
      "longitude": 129.3768895,
      "latitude": 35.5024327,
      "type": "place",
      "sid": 13571171,
      "address": "울산 남구 장생포고래로 207",
      "mcid": "DINING",
      "mcid_name": "음식점",
      "available": 1
    },
    {
      "base_dt": "20240806",
      "bookmark_id": 1396392921,
      "name": "리안",
      "longitude": 128.6503272,
      "latitude": 35.8552903,
      "type": "place",
      "sid": 16210829,
      "address": "대구 수성구 교학로4길 48",
      "mcid": "DINING",
      "mcid_name": "음식점",
      "available": 1
    },
    {
      "base_dt": "20240806",
      "bookmark_id": 1896646548,
      "name": "선미돈돌이",
      "longitude": 129.0864314,
      "latitude": 35.4918796,
      "type": "place",
      "sid": 12944898,
      "address": "경남 양산시 하북면 신평4길 5",
      "mcid": "DINING",
      "mcid_name": "음식점",
      "available": 1
    },
    {
      "base_dt": "20240806",
      "bookmark_id": 1620630999,
      "name": "미가훠궈양고기",
      "longitude": 127.0981462,
      "latitude": 37.3225907,
      "type": "place",
      "sid": 13125296,
      "address": "경기 용인시 수지구 풍덕천로140번길 15",
      "mcid": "DINING",
      "mcid_name": "음식점",
      "available": 1
    },
    {
      "base_dt": "20240806",
      "bookmark_id": 1896644729,
      "name": "고향한우촌",
      "longitude": 128.8249639,
      "latitude": 37.2223599,
      "type": "place",
      "sid": 38415485,
      "address": "강원 정선군 사북읍 파랑새길 13-5",
      "mcid": "DINING",
      "mcid_name": "음식점",
      "available": 1
    },
    {
      "base_dt": "20240806",
      "bookmark_id": 1896643436,
      "name": "마츠도",
      "longitude": 129.2103842,
      "latitude": 35.1884548,
      "type": "place",
      "sid": 1222272044,
      "address": "부산 기장군 기장읍 당사로8길 22",
      "mcid": "DINING",
      "mcid_name": "음식점",
      "available": 1
    },
    {
      "base_dt": "20240806",
      "bookmark_id": 1896642788,
      "name": "밀란국수 개포본점",
      "longitude": 127.0491151,
      "latitude": 37.4785571,
      "type": "place",
      "sid": 18416891,
      "address": "서울 강남구 개포로28길 4",
      "mcid": "DINING",
      "mcid_name": "음식점",
      "available": 1
    },
    {
      "base_dt": "20240806",
      "bookmark_id": 1896640689,
      "name": "백소정 한양대점",
      "longitude": 127.0410974,
      "latitude": 37.5603752,
      "type": "place",
      "sid": 1977215149,
      "address": "서울 성동구 마조로 29",
      "mcid": "DINING",
      "mcid_name": "음식점",
      "available": 1
    },
    {
      "base_dt": "20240806",
      "bookmark_id": 1896639814,
      "name": "카페 피아체레",
      "longitude": 127.0603376,
      "latitude": 37.3478461,
      "type": "place",
      "sid": 38233239,
      "address": "경기 용인시 수지구 동천로448번길 31",
      "mcid": "DINING",
      "mcid_name": "음식점",
      "available": 1
    },
    {
      "base_dt": "20240806",
      "bookmark_id": 1896638597,
      "name": "봉이만두 본점",
      "longitude": 127.1263117,
      "latitude": 37.6564698,
      "type": "place",
      "sid": 1239175082,
      "address": "경기 남양주시 두물로11번길 12-20",
      "mcid": "DINING",
      "mcid_name": "음식점",
      "available": 1
    },
    {
      "base_dt": "20240806",
      "bookmark_id": 1896637548,
      "name": "오리촌",
      "longitude": 127.2479416,
      "latitude": 37.6648258,
      "type": "place",
      "sid": 17855948,
      "address": "경기 남양주시 천마산로16번길 16",
      "mcid": "DINING",
      "mcid_name": "음식점",
      "available": 1
    },
    {
      "base_dt": "20240806",
      "bookmark_id": 1896635239,
      "name": "연담지",
      "longitude": 128.0661299,
      "latitude": 35.0364989,
      "type": "place",
      "sid": 1269441820,
      "address": "경남 사천시 용현면 신영길 13-17",
      "mcid": "DINING",
      "mcid_name": "음식점",
      "available": 1
    },
    {
      "base_dt": "20240806",
      "bookmark_id": 1896634149,
      "name": "양재닭집",
      "longitude": 127.0378751,
      "latitude": 37.4844372,
      "type": "place",
      "sid": 35136252,
      "address": "서울 서초구 남부순환로356길 15",
      "mcid": "DINING",
      "mcid_name": "음식점",
      "available": 1
    },
    {
      "base_dt": "20240806",
      "bookmark_id": 1896633011,
      "name": "평화막국수",
      "longitude": 127.549625,
      "latitude": 37.8860821,
      "type": "place",
      "sid": 13204235,
      "address": "경기 가평군 북면 화악산로 8",
      "mcid": "DINING",
      "mcid_name": "음식점",
      "available": 1
    },
    {
      "base_dt": "20240806",
      "bookmark_id": 1896631101,
      "name": "목식당",
      "longitude": 126.9656777,
      "latitude": 37.5932517,
      "type": "place",
      "sid": 1960837795,
      "address": "서울 종로구 백석동길 13",
      "mcid": "DINING",
      "mcid_name": "음식점",
      "available": 1
    },
    {
      "base_dt": "20240806",
      "bookmark_id": 1896629416,
      "name": "이한진숙성회",
      "longitude": 127.1311643,
      "latitude": 37.5426312,
      "type": "place",
      "sid": 1093811473,
      "address": "서울 강동구 구천면로 247-1",
      "mcid": "DINING",
      "mcid_name": "음식점",
      "available": 1
    },
    {
      "base_dt": "20240806",
      "bookmark_id": 1896626299,
      "name": "한섬갈비",
      "longitude": 127.6306692,
      "latitude": 37.5068753,
      "type": "place",
      "sid": 18925105,
      "address": "경기 양평군 용문면 용문로 802",
      "mcid": "DINING",
      "mcid_name": "음식점",
      "available": 1
    },
    {
      "base_dt": "20240806",
      "bookmark_id": 1896619585,
      "name": "수림물회",
      "longitude": 129.4098397,
      "latitude": 35.9701622,
      "type": "place",
      "sid": 32755925,
      "address": "경북 포항시 남구 오천읍 냉천로 274-1",
      "mcid": "DINING",
      "mcid_name": "음식점",
      "available": 1
    },
    {
      "base_dt": "20240806",
      "bookmark_id": 1896618700,
      "name": "큰집뼈대있는짬뽕",
      "longitude": 127.2597223,
      "latitude": 36.4818111,
      "type": "place",
      "sid": 35177502,
      "address": "세종  노을3로 19",
      "mcid": "DINING",
      "mcid_name": "음식점",
      "available": 1
    },
    {
      "base_dt": "20240806",
      "bookmark_id": 1896617519,
      "name": "복길 경주본점",
      "longitude": 129.2099711,
      "latitude": 35.8331478,
      "type": "place",
      "sid": 1071926628,
      "address": "경북 경주시 첨성로 71",
      "mcid": "DINING",
      "mcid_name": "음식점",
      "available": 1
    },
    {
      "base_dt": "20240806",
      "bookmark_id": 1787264481,
      "name": "기노스코",
      "longitude": 126.6313781,
      "latitude": 37.3952561,
      "type": "place",
      "sid": 94026820,
      "address": "인천 연수구 아트센터대로 203",
      "mcid": "CAFE",
      "mcid_name": "카페",
      "available": 1
    },
    {
      "base_dt": "20240806",
      "bookmark_id": 1518282953,
      "name": "남해전복물회",
      "longitude": 127.9250862,
      "latitude": 34.8175053,
      "type": "place",
      "sid": 1290027542,
      "address": "경남 남해군 이동면 남해대로 2436",
      "mcid": "DINING",
      "mcid_name": "음식점",
      "available": 1
    },
    {
      "base_dt": "20240806",
      "bookmark_id": 1787262448,
      "name": "내리다곰",
      "longitude": 126.8948536,
      "latitude": 37.5363451,
      "type": "place",
      "sid": 1581413861,
      "address": "서울 영등포구 선유로49길 23",
      "mcid": "DINING",
      "mcid_name": "음식점",
      "available": 1
    },
    {
      "base_dt": "20240806",
      "bookmark_id": 1787260747,
      "name": "충청본가",
      "longitude": 129.349981,
      "latitude": 36.0269605,
      "type": "place",
      "sid": 1275055927,
      "address": "경북 포항시 북구 양학로 36",
      "mcid": "DINING",
      "mcid_name": "음식점",
      "available": 1
    },
    {
      "base_dt": "20240806",
      "bookmark_id": 1787259274,
      "name": "춘천정통닭갈비",
      "longitude": 126.7056655,
      "latitude": 37.7277663,
      "type": "place",
      "sid": 20013648,
      "address": "경기 파주시 교하로 914",
      "mcid": "DINING",
      "mcid_name": "음식점",
      "available": 1
    },
    {
      "base_dt": "20240806",
      "bookmark_id": 1787257513,
      "name": "선식당",
      "longitude": 127.0687775,
      "latitude": 36.9694485,
      "type": "place",
      "sid": 1684251052,
      "address": "경기 평택시 팽성읍 동서촌로 185",
      "mcid": "DINING",
      "mcid_name": "음식점",
      "available": 1
    },
    {
      "base_dt": "20240806",
      "bookmark_id": 1787256479,
      "name": "해남식당",
      "longitude": 126.9121616,
      "latitude": 35.1480057,
      "type": "place",
      "sid": 36029425,
      "address": "광주 동구 중앙로 149-5",
      "mcid": "DINING",
      "mcid_name": "음식점",
      "available": 1
    },
    {
      "base_dt": "20240806",
      "bookmark_id": 1787254483,
      "name": "누아예",
      "longitude": 129.1031263,
      "latitude": 35.1760297,
      "type": "place",
      "sid": 1340200538,
      "address": "부산 수영구 과정로55번길 76",
      "mcid": "DINING",
      "mcid_name": "음식점",
      "available": 1
    },
    {
      "base_dt": "20240806",
      "bookmark_id": 1787252902,
      "name": "신흥곱창",
      "longitude": 127.4195972,
      "latitude": 36.3300779,
      "type": "place",
      "sid": 16047085,
      "address": "대전 중구 보문로 311",
      "mcid": "DINING",
      "mcid_name": "음식점",
      "available": 1
    },
    {
      "base_dt": "20240806",
      "bookmark_id": 1787251564,
      "name": "진주냉면산홍 본점",
      "longitude": 128.1433767,
      "latitude": 35.214004,
      "type": "place",
      "sid": 38567228,
      "address": "경남 진주시 금산면 금산로 62",
      "mcid": "DINING",
      "mcid_name": "음식점",
      "available": 1
    },
    {
      "base_dt": "20240806",
      "bookmark_id": 1787249904,
      "name": "대치정육식당",
      "longitude": 127.056461,
      "latitude": 37.502273,
      "type": "place",
      "sid": 11847175,
      "address": "서울 강남구 역삼로 450",
      "mcid": "DINING",
      "mcid_name": "음식점",
      "available": 1
    },
    {
      "base_dt": "20240806",
      "bookmark_id": 1787244848,
      "name": "바이킹스워프 코엑스점",
      "longitude": 127.0602175,
      "latitude": 37.5116687,
      "type": "place",
      "sid": 1508030844,
      "address": "서울 강남구 영동대로 513",
      "mcid": "DINING",
      "mcid_name": "음식점",
      "available": 1
    },
    {
      "base_dt": "20240806",
      "bookmark_id": 1758133536,
      "name": "봉피양 방이점",
      "longitude": 127.126039,
      "latitude": 37.510237,
      "type": "place",
      "sid": 11861413,
      "address": "서울 송파구 양재대로71길 1-4",
      "mcid": "DINING",
      "mcid_name": "음식점",
      "available": 1
    },
    {
      "base_dt": "20240806",
      "bookmark_id": 1787241624,
      "name": "팥도리",
      "longitude": 127.5246191,
      "latitude": 34.947874,
      "type": "place",
      "sid": 34635503,
      "address": "전남 순천시 기적의도서관길 22",
      "mcid": "CAFE",
      "mcid_name": "카페",
      "available": 1
    },
    {
      "base_dt": "20240806",
      "bookmark_id": 1787239025,
      "name": "을밀대 잠실점",
      "longitude": 127.1087584,
      "latitude": 37.5128166,
      "type": "place",
      "sid": 1653601722,
      "address": "서울 송파구 오금로15길 7-13",
      "mcid": "DINING",
      "mcid_name": "음식점",
      "available": 1
    },
    {
      "base_dt": "20240806",
      "bookmark_id": 1787237255,
      "name": "강남면옥 대치점",
      "longitude": 127.0573462,
      "latitude": 37.4974622,
      "type": "place",
      "sid": 19882439,
      "address": "서울 강남구 도곡로 428",
      "mcid": "DINING",
      "mcid_name": "음식점",
      "available": 1
    },
    {
      "base_dt": "20240806",
      "bookmark_id": 1787235028,
      "name": "신신초마",
      "longitude": 129.0895452,
      "latitude": 35.2448182,
      "type": "place",
      "sid": 1141388894,
      "address": "부산 금정구 금정로231번길 21",
      "mcid": "DINING",
      "mcid_name": "음식점",
      "available": 1
    },
    {
      "base_dt": "20240806",
      "bookmark_id": 1787232269,
      "name": "대화식당",
      "longitude": 129.3682143,
      "latitude": 36.0357459,
      "type": "place",
      "sid": 15711544,
      "address": "경북 포항시 북구 죽도시장11길 6-5",
      "mcid": "DINING",
      "mcid_name": "음식점",
      "available": 1
    },
    {
      "base_dt": "20240806",
      "bookmark_id": 1787227780,
      "name": "다도해물나라",
      "longitude": 126.8458627,
      "latitude": 35.1446063,
      "type": "place",
      "sid": 1671153356,
      "address": "광주 서구 마륵복개로 57",
      "mcid": "DINING",
      "mcid_name": "음식점",
      "available": 1
    },
    {
      "base_dt": "20240806",
      "bookmark_id": 1787225485,
      "name": "도가네매운탕",
      "longitude": 127.2270035,
      "latitude": 36.5999093,
      "type": "place",
      "sid": 17549339,
      "address": "세종 연서면 도신고복로 585",
      "mcid": "DINING",
      "mcid_name": "음식점",
      "available": 1
    },
    {
      "base_dt": "20240806",
      "bookmark_id": 1787222343,
      "name": "조선옥",
      "longitude": 127.58565,
      "latitude": 34.9707096,
      "type": "place",
      "sid": 16729545,
      "address": "전남 광양시 광양읍 숲샘길 70",
      "mcid": "DINING",
      "mcid_name": "음식점",
      "available": 1
    },
    {
      "base_dt": "20240806",
      "bookmark_id": 1787220327,
      "name": "통한마리족발",
      "longitude": 129.0887474,
      "latitude": 35.2479752,
      "type": "place",
      "sid": 1288011589,
      "address": "부산 금정구 금강로 452-1",
      "mcid": "DINING",
      "mcid_name": "음식점",
      "available": 1
    },
    {
      "base_dt": "20240806",
      "bookmark_id": 1787218130,
      "name": "효림돈까스",
      "longitude": 127.0530912,
      "latitude": 37.2007796,
      "type": "place",
      "sid": 1663301701,
      "address": "경기 화성시 여울로 15",
      "mcid": "DINING",
      "mcid_name": "음식점",
      "available": 1
    },
    {
      "base_dt": "20240806",
      "bookmark_id": 1787216995,
      "name": "동천육회전문숯불구이",
      "longitude": 129.2228845,
      "latitude": 35.8556808,
      "type": "place",
      "sid": 15255126,
      "address": "경북 경주시 대안길 63",
      "mcid": "DINING",
      "mcid_name": "음식점",
      "available": 1
    },
    {
      "base_dt": "20240806",
      "bookmark_id": 1787213463,
      "name": "교대이층집 당산점",
      "longitude": 126.9006948,
      "latitude": 37.5341035,
      "type": "place",
      "sid": 1568205525,
      "address": "서울 영등포구 당산로45길 13",
      "mcid": "DINING",
      "mcid_name": "음식점",
      "available": 1
    },
    {
      "base_dt": "20240806",
      "bookmark_id": 1787210870,
      "name": "강남아구탕찜",
      "longitude": 127.4384514,
      "latitude": 36.9927672,
      "type": "place",
      "sid": 1717364646,
      "address": "충북 진천군 화랑5길 21",
      "mcid": "DINING",
      "mcid_name": "음식점",
      "available": 1
    },
    {
      "base_dt": "20240806",
      "bookmark_id": 1787209346,
      "name": "강산매운탕",
      "longitude": 127.3580557,
      "latitude": 36.5128012,
      "type": "place",
      "sid": 1449599630,
      "address": "세종 금남면 금강변길 1249",
      "mcid": "DINING",
      "mcid_name": "음식점",
      "available": 1
    },
    {
      "base_dt": "20240806",
      "bookmark_id": 1787205944,
      "name": "행복이가득한집",
      "longitude": 126.9777993,
      "latitude": 37.5477366,
      "type": "place",
      "sid": 1060660020,
      "address": "서울 용산구 후암로 21-2",
      "mcid": "CAFE",
      "mcid_name": "카페",
      "available": 1
    },
    {
      "base_dt": "20240806",
      "bookmark_id": 1787204998,
      "name": "청원한우마실",
      "longitude": 127.4263142,
      "latitude": 36.7409046,
      "type": "place",
      "sid": 1491080022,
      "address": "충북 청주시 청원구 오창읍 성산2길 5",
      "mcid": "DINING",
      "mcid_name": "음식점",
      "available": 1
    },
    {
      "base_dt": "20240806",
      "bookmark_id": 1787203352,
      "name": "뚝방국수",
      "longitude": 126.9793383,
      "latitude": 35.3180199,
      "type": "place",
      "sid": 17171071,
      "address": "전남 담양군 담양읍 천변5길 20",
      "mcid": "DINING",
      "mcid_name": "음식점",
      "available": 1
    },
    {
      "base_dt": "20240806",
      "bookmark_id": 1787193654,
      "name": "수진분식 성남중앙지하쇼핑몰점",
      "longitude": 127.1408751,
      "latitude": 37.4374787,
      "type": "place",
      "sid": 31315669,
      "address": "경기 성남시 중원구 산성대로 204-5",
      "mcid": "DINING",
      "mcid_name": "음식점",
      "available": 1
    },
    {
      "base_dt": "20240806",
      "bookmark_id": 1787191662,
      "name": "하하보리밥",
      "longitude": 128.9886147,
      "latitude": 35.3082313,
      "type": "place",
      "sid": 1286468907,
      "address": "경남 양산시 물금읍 버들3길 8-1",
      "mcid": "DINING",
      "mcid_name": "음식점",
      "available": 1
    },
    {
      "base_dt": "20240806",
      "bookmark_id": 1787190154,
      "name": "골목길그집",
      "longitude": 127.0862626,
      "latitude": 37.5082842,
      "type": "place",
      "sid": 227901719,
      "address": "서울 송파구 석촌호수로12길 1-22",
      "mcid": "BAR",
      "mcid_name": "BAR",
      "available": 1
    },
    {
      "base_dt": "20240806",
      "bookmark_id": 1787188860,
      "name": "톰스비스트로",
      "longitude": 128.9050283,
      "latitude": 37.8045719,
      "type": "place",
      "sid": 37847475,
      "address": "강원 강릉시 경포로 489-6",
      "mcid": "DINING",
      "mcid_name": "음식점",
      "available": 1
    },
    {
      "base_dt": "20240806",
      "bookmark_id": 1787187429,
      "name": "사랑마루",
      "longitude": 129.3329205,
      "latitude": 36.0327179,
      "type": "place",
      "sid": 15083460,
      "address": "경북 포항시 남구 희망대로382번길 11",
      "mcid": "DINING",
      "mcid_name": "음식점",
      "available": 1
    },
    {
      "base_dt": "20240806",
      "bookmark_id": 1787185687,
      "name": "원조 부자손짜장 실안점",
      "longitude": 128.0435439,
      "latitude": 34.9418904,
      "type": "place",
      "sid": 1336668265,
      "address": "경남 사천시 해안관광로 21",
      "mcid": "DINING",
      "mcid_name": "음식점",
      "available": 1
    },
    {
      "base_dt": "20240806",
      "bookmark_id": 1787182545,
      "name": "나가하마만게츠",
      "longitude": 129.1575255,
      "latitude": 35.1665856,
      "type": "place",
      "sid": 1804782359,
      "address": "부산 해운대구 우동1로 57",
      "mcid": "DINING",
      "mcid_name": "음식점",
      "available": 1
    },
    {
      "base_dt": "20240806",
      "bookmark_id": 1787179995,
      "name": "모장참옻닭",
      "longitude": 127.7328653,
      "latitude": 34.6577867,
      "type": "place",
      "sid": 1651754596,
      "address": "전남 여수시 돌산읍 평사로 400",
      "mcid": "DINING",
      "mcid_name": "음식점",
      "available": 1
    },
    {
      "base_dt": "20240806",
      "bookmark_id": 1694487861,
      "name": "유치회관",
      "longitude": 127.032147,
      "latitude": 37.2587938,
      "type": "place",
      "sid": 19878532,
      "address": "경기 수원시 팔달구 효원로292번길 67",
      "mcid": "DINING",
      "mcid_name": "음식점",
      "available": 1
    },
    {
      "base_dt": "20240806",
      "bookmark_id": 1745173725,
      "name": "초가정담",
      "longitude": 127.3962731,
      "latitude": 35.758067,
      "type": "place",
      "sid": 19873218,
      "address": "전북 진안군 마령면 마이산남로 213",
      "mcid": "DINING",
      "mcid_name": "음식점",
      "available": 1
    },
    {
      "base_dt": "20240806",
      "bookmark_id": 1745172907,
      "name": "주문진 막국수",
      "longitude": 129.0595818,
      "latitude": 35.1959835,
      "type": "place",
      "sid": 11831717,
      "address": "부산 동래구 사직로58번길 8",
      "mcid": "DINING",
      "mcid_name": "음식점",
      "available": 1
    },
    {
      "base_dt": "20240806",
      "bookmark_id": 1745171677,
      "name": "구룡포대게직판장",
      "longitude": 129.5453017,
      "latitude": 35.981838,
      "type": "place",
      "sid": 31523853,
      "address": "경북 포항시 남구 구룡포읍 호미로 88",
      "mcid": "SHOPPING",
      "mcid_name": "쇼핑",
      "available": 1
    },
    {
      "base_dt": "20240806",
      "bookmark_id": 1745168453,
      "name": "갱소년",
      "longitude": 126.7920436,
      "latitude": 35.1366269,
      "type": "place",
      "sid": 37880440,
      "address": "광주 광산구 송정로8번길 7-4",
      "mcid": "CAFE",
      "mcid_name": "카페",
      "available": 1
    },
    {
      "base_dt": "20240806",
      "bookmark_id": 1745167141,
      "name": "이토야",
      "longitude": 127.1264395,
      "latitude": 37.5492126,
      "type": "place",
      "sid": 1624542413,
      "address": "서울 강동구 올림픽로93길 9",
      "mcid": "DINING",
      "mcid_name": "음식점",
      "available": 1
    },
    {
      "base_dt": "20240806",
      "bookmark_id": 1745166346,
      "name": "무교동북어국집",
      "longitude": 126.9798583,
      "latitude": 37.5677548,
      "type": "place",
      "sid": 11619941,
      "address": "서울 중구 을지로1길 38",
      "mcid": "DINING",
      "mcid_name": "음식점",
      "available": 1
    },
    {
      "base_dt": "20240806",
      "bookmark_id": 1745165313,
      "name": "삼대막국수",
      "longitude": 127.7277719,
      "latitude": 37.863109,
      "type": "place",
      "sid": 13355906,
      "address": "강원 춘천시 남춘로5번길 22",
      "mcid": "DINING",
      "mcid_name": "음식점",
      "available": 1
    },
    {
      "base_dt": "20240806",
      "bookmark_id": 1745164237,
      "name": "대광식당",
      "longitude": 126.8391365,
      "latitude": 35.1440359,
      "type": "place",
      "sid": 13014858,
      "address": "광주 서구 상무대로695번길 15",
      "mcid": "DINING",
      "mcid_name": "음식점",
      "available": 1
    },
    {
      "base_dt": "20240806",
      "bookmark_id": 1745161604,
      "name": "고참밀가",
      "longitude": 126.9151477,
      "latitude": 36.283149,
      "type": "place",
      "sid": 32861148,
      "address": "충남 부여군 부여읍 성왕로 254",
      "mcid": "DINING",
      "mcid_name": "음식점",
      "available": 1
    },
    {
      "base_dt": "20240806",
      "bookmark_id": 1745161066,
      "name": "진주회관",
      "longitude": 126.974513,
      "latitude": 37.5623209,
      "type": "place",
      "sid": 11679660,
      "address": "서울 중구 세종대로11길 26",
      "mcid": "DINING",
      "mcid_name": "음식점",
      "available": 1
    },
    {
      "base_dt": "20240806",
      "bookmark_id": 1734520685,
      "name": "금정돼지국밥",
      "longitude": 129.0893284,
      "latitude": 35.2451474,
      "type": "place",
      "sid": 969984553,
      "address": "부산 금정구 금정로231번길 28-1",
      "mcid": "DINING",
      "mcid_name": "음식점",
      "available": 1
    },
    {
      "base_dt": "20240806",
      "bookmark_id": 1734509752,
      "name": "일품향",
      "longitude": 129.0674351,
      "latitude": 35.1935113,
      "type": "place",
      "sid": 33875829,
      "address": "부산 연제구 법원북로3번길 7",
      "mcid": "DINING",
      "mcid_name": "음식점",
      "available": 1
    },
    {
      "base_dt": "20240806",
      "bookmark_id": 1734504317,
      "name": "어반리 st 동탄점",
      "longitude": 127.1137697,
      "latitude": 37.1575878,
      "type": "place",
      "sid": 1011823286,
      "address": "경기 화성시 장지로 60-12",
      "mcid": "CAFE",
      "mcid_name": "카페",
      "available": 1
    },
    {
      "base_dt": "20240806",
      "bookmark_id": 1734502755,
      "name": "동명항오징어난전",
      "longitude": 128.5941823,
      "latitude": 38.2096961,
      "type": "place",
      "sid": 38724151,
      "address": "강원 속초시 설악금강대교로 228",
      "mcid": "SHOPPING",
      "mcid_name": "쇼핑",
      "available": 1
    },
    {
      "base_dt": "20240806",
      "bookmark_id": 1734500526,
      "name": "잇칸시타",
      "longitude": 126.3702409,
      "latitude": 33.4770847,
      "type": "place",
      "sid": 1074627571,
      "address": "제주 제주시 애월읍 신엄안2길 54-1",
      "mcid": "DINING",
      "mcid_name": "음식점",
      "available": 1
    },
    {
      "base_dt": "20240806",
      "bookmark_id": 1734496112,
      "name": "명가막국수",
      "longitude": 127.7920269,
      "latitude": 37.932931,
      "type": "place",
      "sid": 12994299,
      "address": "강원 춘천시 신북읍 상천3길 8",
      "mcid": "DINING",
      "mcid_name": "음식점",
      "available": 1
    },
    {
      "base_dt": "20240806",
      "bookmark_id": 1734494162,
      "name": "연홍소바",
      "longitude": 129.3697816,
      "latitude": 36.045914,
      "type": "place",
      "sid": 1536461908,
      "address": "경북 포항시 북구 동빈로 99",
      "mcid": "DINING",
      "mcid_name": "음식점",
      "available": 1
    },
    {
      "base_dt": "20240806",
      "bookmark_id": 1734492420,
      "name": "동면식밀면",
      "longitude": 129.1213704,
      "latitude": 35.155262,
      "type": "place",
      "sid": 1252612781,
      "address": "부산 수영구 광안해변로 251",
      "mcid": "DINING",
      "mcid_name": "음식점",
      "available": 1
    },
    {
      "base_dt": "20240806",
      "bookmark_id": 1734490961,
      "name": "폽타이와웨이브6",
      "longitude": 127.0788235,
      "latitude": 37.531547,
      "type": "place",
      "sid": 1103916628,
      "address": "서울 광진구 자양번영로6길 60",
      "mcid": "DINING",
      "mcid_name": "음식점",
      "available": 1
    },
    {
      "base_dt": "20240806",
      "bookmark_id": 1734488614,
      "name": "허브족발",
      "longitude": 126.9025793,
      "latitude": 37.5342557,
      "type": "place",
      "sid": 20626597,
      "address": "서울 영등포구 당산로 232",
      "mcid": "DINING",
      "mcid_name": "음식점",
      "available": 1
    },
    {
      "base_dt": "20240806",
      "bookmark_id": 1734485869,
      "name": "선어마을",
      "longitude": 127.5154233,
      "latitude": 34.943506,
      "type": "place",
      "sid": 20081825,
      "address": "전남 순천시 연향로 15",
      "mcid": "DINING",
      "mcid_name": "음식점",
      "available": 1
    },
    {
      "base_dt": "20240806",
      "bookmark_id": 1734483756,
      "name": "이조순대국",
      "longitude": 126.9602673,
      "latitude": 37.5352498,
      "type": "place",
      "sid": 34138448,
      "address": "서울 용산구 원효로41길 54",
      "mcid": "DINING",
      "mcid_name": "음식점",
      "available": 1
    },
    {
      "base_dt": "20240806",
      "bookmark_id": 1734479861,
      "name": "연길양꼬치&칭따오",
      "longitude": 126.97533,
      "latitude": 37.4018765,
      "type": "place",
      "sid": 37005989,
      "address": "경기 안양시 동안구 인덕원로30번길 18",
      "mcid": "DINING",
      "mcid_name": "음식점",
      "available": 1
    },
    {
      "base_dt": "20240806",
      "bookmark_id": 1734469842,
      "name": "두남자와어머니청국장",
      "longitude": 127.5697346,
      "latitude": 36.7762264,
      "type": "place",
      "sid": 33819606,
      "address": "충북 증평군 증평읍 초중2길 4",
      "mcid": "DINING",
      "mcid_name": "음식점",
      "available": 1
    },
    {
      "base_dt": "20240806",
      "bookmark_id": 1734463984,
      "name": "심퍼티쿠시 가로수길점",
      "longitude": 127.0205547,
      "latitude": 37.5176798,
      "type": "place",
      "sid": 1001519803,
      "address": "서울 강남구 강남대로154길 16",
      "mcid": "DINING",
      "mcid_name": "음식점",
      "available": 1
    },
    {
      "base_dt": "20240806",
      "bookmark_id": 1734460811,
      "name": "옥당",
      "longitude": 126.2880804,
      "latitude": 36.6967424,
      "type": "place",
      "sid": 1578976959,
      "address": "충남 태안군 남면 안면대로 605-8",
      "mcid": "DINING",
      "mcid_name": "음식점",
      "available": 1
    },
    {
      "base_dt": "20240806",
      "bookmark_id": 1722751423,
      "name": "한소반 청계산점",
      "longitude": 127.0586853,
      "latitude": 37.4437441,
      "type": "place",
      "sid": 19866404,
      "address": "서울 서초구 청계산로 249",
      "mcid": "DINING",
      "mcid_name": "음식점",
      "available": 1
    },
    {
      "base_dt": "20240806",
      "bookmark_id": 1722747544,
      "name": "대남포차",
      "longitude": 129.1048119,
      "latitude": 35.1386583,
      "type": "place",
      "sid": 1140286714,
      "address": "부산 남구 용소로7번길 90",
      "mcid": "DINING",
      "mcid_name": "음식점",
      "available": 1
    },
    {
      "base_dt": "20240806",
      "bookmark_id": 1720583584,
      "name": "주복",
      "longitude": 127.4796643,
      "latitude": 34.9549065,
      "type": "place",
      "sid": 17310910,
      "address": "전남 순천시 금곡길 106",
      "mcid": "DINING",
      "mcid_name": "음식점",
      "available": 1
    },
    {
      "base_dt": "20240806",
      "bookmark_id": 1720581111,
      "name": "각지불",
      "longitude": 126.6753281,
      "latitude": 33.4244775,
      "type": "place",
      "sid": 16888793,
      "address": "제주 제주시 조천읍 남조로 1751",
      "mcid": "DINING",
      "mcid_name": "음식점",
      "available": 1
    },
    {
      "base_dt": "20240806",
      "bookmark_id": 1720580469,
      "name": "애월연어 본점",
      "longitude": 126.3956908,
      "latitude": 33.4256492,
      "type": "place",
      "sid": 1170061749,
      "address": "제주 제주시 애월읍 하소로 660",
      "mcid": "DINING",
      "mcid_name": "음식점",
      "available": 1
    },
    {
      "base_dt": "20240806",
      "bookmark_id": 1720579529,
      "name": "천애부히쇼우 망포 본점",
      "longitude": 127.0583022,
      "latitude": 37.2373951,
      "type": "place",
      "sid": 1731985891,
      "address": "경기 수원시 영통구 영통로 103",
      "mcid": "DINING",
      "mcid_name": "음식점",
      "available": 1
    },
    {
      "base_dt": "20240806",
      "bookmark_id": 1720578820,
      "name": "서령",
      "longitude": 126.9754008,
      "latitude": 37.5585454,
      "type": "place",
      "sid": 1304551192,
      "address": "서울 중구 소월로 10",
      "mcid": "DINING",
      "mcid_name": "음식점",
      "available": 1
    },
    {
      "base_dt": "20240806",
      "bookmark_id": 1720578085,
      "name": "대박난맛집 거제 학동점",
      "longitude": 128.6380012,
      "latitude": 34.7721021,
      "type": "place",
      "sid": 30889304,
      "address": "경남 거제시 동부면 거제대로 910",
      "mcid": "DINING",
      "mcid_name": "음식점",
      "available": 1
    },
    {
      "base_dt": "20240806",
      "bookmark_id": 1720577129,
      "name": "가양칼국수버섯매운탕",
      "longitude": 126.931282,
      "latitude": 37.5208564,
      "type": "place",
      "sid": 11624237,
      "address": "서울 영등포구 국제금융로 78",
      "mcid": "DINING",
      "mcid_name": "음식점",
      "available": 1
    },
    {
      "base_dt": "20240806",
      "bookmark_id": 1720576243,
      "name": "메밀꽃필무렵",
      "longitude": 126.8782624,
      "latitude": 35.296127,
      "type": "place",
      "sid": 1216593057,
      "address": "전남 담양군 대전면 병풍로 383-28",
      "mcid": "DINING",
      "mcid_name": "음식점",
      "available": 1
    },
    {
      "base_dt": "20240806",
      "bookmark_id": 1720574792,
      "name": "중국",
      "longitude": 126.9697482,
      "latitude": 37.586199,
      "type": "place",
      "sid": 19861692,
      "address": "서울 종로구 자하문로33길 2",
      "mcid": "DINING",
      "mcid_name": "음식점",
      "available": 1
    },
    {
      "base_dt": "20240806",
      "bookmark_id": 1720573383,
      "name": "홍명",
      "longitude": 127.0295105,
      "latitude": 37.514514,
      "type": "place",
      "sid": 18505540,
      "address": "서울 강남구 논현로131길 10",
      "mcid": "DINING",
      "mcid_name": "음식점",
      "available": 1
    },
    {
      "base_dt": "20240806",
      "bookmark_id": 1720572592,
      "name": "별미볶음점",
      "longitude": 126.9269308,
      "latitude": 37.5207952,
      "type": "place",
      "sid": 32817544,
      "address": "서울 영등포구 국제금융로6길 33",
      "mcid": "DINING",
      "mcid_name": "음식점",
      "available": 1
    },
    {
      "base_dt": "20240806",
      "bookmark_id": 1720571361,
      "name": "나룻배",
      "longitude": 126.8458887,
      "latitude": 35.1597185,
      "type": "place",
      "sid": 38710170,
      "address": "광주 서구 시청서편로8번길 3",
      "mcid": "DINING",
      "mcid_name": "음식점",
      "available": 1
    },
    {
      "base_dt": "20240806",
      "bookmark_id": 1720570369,
      "name": "화성식당",
      "longitude": 126.5859201,
      "latitude": 33.5213556,
      "type": "place",
      "sid": 32156714,
      "address": "제주 제주시 일주동로 383",
      "mcid": "DINING",
      "mcid_name": "음식점",
      "available": 1
    },
    {
      "base_dt": "20240806",
      "bookmark_id": 1720567438,
      "name": "진한국밥",
      "longitude": 126.6731146,
      "latitude": 36.6845337,
      "type": "place",
      "sid": 17650845,
      "address": "충남 예산군 삽교읍 수암산로 232",
      "mcid": "DINING",
      "mcid_name": "음식점",
      "available": 1
    },
    {
      "base_dt": "20240806",
      "bookmark_id": 1720564918,
      "name": "만강장어탕",
      "longitude": 128.7057819,
      "latitude": 35.8266605,
      "type": "place",
      "sid": 36238105,
      "address": "대구 수성구 욱수길 31",
      "mcid": "DINING",
      "mcid_name": "음식점",
      "available": 1
    },
    {
      "base_dt": "20240806",
      "bookmark_id": 1720564222,
      "name": "민평대구해물탕",
      "longitude": 128.6462669,
      "latitude": 35.8597917,
      "type": "place",
      "sid": 13066478,
      "address": "대구 수성구 무열로 9",
      "mcid": "DINING",
      "mcid_name": "음식점",
      "available": 1
    },
    {
      "base_dt": "20240806",
      "bookmark_id": 1720562099,
      "name": "카밀로 한남",
      "longitude": 127.0104879,
      "latitude": 37.5351791,
      "type": "place",
      "sid": 1527392392,
      "address": "서울 용산구 한남대로20길 61-7",
      "mcid": "DINING",
      "mcid_name": "음식점",
      "available": 1
    },
    {
      "base_dt": "20240806",
      "bookmark_id": 1720559480,
      "name": "라치오파스타",
      "longitude": 127.0876969,
      "latitude": 37.5117934,
      "type": "place",
      "sid": 1110338367,
      "address": "서울 송파구 올림픽로 145",
      "mcid": "DINING",
      "mcid_name": "음식점",
      "available": 1
    },
    {
      "base_dt": "20240806",
      "bookmark_id": 1720558475,
      "name": "크래프트9펠롱본점 시카고피자&버거",
      "longitude": 126.8954938,
      "latitude": 37.771387,
      "type": "place",
      "sid": 1568602957,
      "address": "경기 파주시 광탄면 보광로 783",
      "mcid": "DINING",
      "mcid_name": "음식점",
      "available": 1
    },
    {
      "base_dt": "20240806",
      "bookmark_id": 1720555540,
      "name": "반구정나루터집",
      "longitude": 126.7517644,
      "latitude": 37.8684353,
      "type": "place",
      "sid": 11817094,
      "address": "경기 파주시 문산읍 반구정로85번길 13",
      "mcid": "DINING",
      "mcid_name": "음식점",
      "available": 1
    },
    {
      "base_dt": "20240806",
      "bookmark_id": 1720548557,
      "name": "세정",
      "longitude": 129.0254361,
      "latitude": 35.1009423,
      "type": "place",
      "sid": 13572671,
      "address": "부산 중구 중구로33번길 45",
      "mcid": "DINING",
      "mcid_name": "음식점",
      "available": 1
    },
    {
      "base_dt": "20240806",
      "bookmark_id": 1720546550,
      "name": "이진상회",
      "longitude": 127.4000128,
      "latitude": 37.2790116,
      "type": "place",
      "sid": 504379348,
      "address": "경기 이천시 마장면 서이천로 648",
      "mcid": "CAFE",
      "mcid_name": "카페",
      "available": 1
    },
    {
      "base_dt": "20240806",
      "bookmark_id": 1720544592,
      "name": "맛있는채움",
      "longitude": 127.4956816,
      "latitude": 34.930589,
      "type": "place",
      "sid": 1414433046,
      "address": "전남 순천시 오천2길 18-8",
      "mcid": "DINING",
      "mcid_name": "음식점",
      "available": 1
    },
    {
      "base_dt": "20240806",
      "bookmark_id": 1720541061,
      "name": "칠성종합시장",
      "longitude": 128.6045007,
      "latitude": 35.8768579,
      "type": "place",
      "sid": 10977251,
      "address": "대구 북구 칠성시장로 28",
      "mcid": "SHOPPING",
      "mcid_name": "쇼핑",
      "available": 1
    },
    {
      "base_dt": "20240806",
      "bookmark_id": 1720537759,
      "name": "프란로칼",
      "longitude": 127.3492309,
      "latitude": 37.6104303,
      "type": "place",
      "sid": 38464472,
      "address": "경기 양평군 서종면 북한강로 819",
      "mcid": "DINING",
      "mcid_name": "음식점",
      "available": 1
    },
    {
      "base_dt": "20240806",
      "bookmark_id": 1720534912,
      "name": "직구나담양석갈비촌",
      "longitude": 129.1096086,
      "latitude": 35.2882697,
      "type": "place",
      "sid": 1060467888,
      "address": "부산 금정구 체육공원로 532",
      "mcid": "DINING",
      "mcid_name": "음식점",
      "available": 1
    },
    {
      "base_dt": "20240806",
      "bookmark_id": 1720532684,
      "name": "올디스타코",
      "longitude": 126.9929594,
      "latitude": 37.5650628,
      "type": "place",
      "sid": 1253387841,
      "address": "서울 중구 충무로4길 3",
      "mcid": "DINING",
      "mcid_name": "음식점",
      "available": 1
    },
    {
      "base_dt": "20240806",
      "bookmark_id": 1720530736,
      "name": "나주곰탕하얀집",
      "longitude": 126.716876,
      "latitude": 35.0322285,
      "type": "place",
      "sid": 12777945,
      "address": "전남 나주시 금성관길 6-1",
      "mcid": "DINING",
      "mcid_name": "음식점",
      "available": 1
    },
    {
      "base_dt": "20240806",
      "bookmark_id": 1720528822,
      "name": "북한산 사기막야영장",
      "longitude": 126.9678963,
      "latitude": 37.6752145,
      "type": "place",
      "sid": 1069441862,
      "address": "경기 고양시 덕양구 북한산로618번길 130",
      "mcid": "ACCOMMODATION",
      "mcid_name": "숙박",
      "available": 1
    },
    {
      "base_dt": "20240806",
      "bookmark_id": 1720519252,
      "name": "메밀정원",
      "longitude": 127.2182442,
      "latitude": 36.4233098,
      "type": "place",
      "sid": 1640056902,
      "address": "충남 공주시 반포면 금벽로 1384",
      "mcid": "DINING",
      "mcid_name": "음식점",
      "available": 1
    },
    {
      "base_dt": "20240806",
      "bookmark_id": 1720514985,
      "name": "서교동 진향",
      "longitude": 126.918376,
      "latitude": 37.5536828,
      "type": "place",
      "sid": 37812777,
      "address": "서울 마포구 월드컵북로1길 62",
      "mcid": "DINING",
      "mcid_name": "음식점",
      "available": 1
    },
    {
      "base_dt": "20240806",
      "bookmark_id": 1720511208,
      "name": "새콩커피",
      "longitude": 128.6962871,
      "latitude": 35.1592511,
      "type": "place",
      "sid": 456164019,
      "address": "경남 창원시 진해구 진해대로 738",
      "mcid": "CAFE",
      "mcid_name": "카페",
      "available": 1
    },
    {
      "base_dt": "20240806",
      "bookmark_id": 1720510413,
      "name": "부산손칼국수",
      "longitude": 129.2980599,
      "latitude": 35.777344,
      "type": "place",
      "sid": 1850327166,
      "address": "경북 경주시 산업로 3036-14",
      "mcid": "DINING",
      "mcid_name": "음식점",
      "available": 1
    },
    {
      "base_dt": "20240806",
      "bookmark_id": 1720508566,
      "name": "아티스트베이커리 안국",
      "longitude": 126.9843435,
      "latitude": 37.5762555,
      "type": "place",
      "sid": 1741938125,
      "address": "서울 종로구 율곡로 45",
      "mcid": "CAFE",
      "mcid_name": "카페",
      "available": 1
    },
    {
      "base_dt": "20240806",
      "bookmark_id": 1720505293,
      "name": "망원동즉석우동 본점",
      "longitude": 126.9111365,
      "latitude": 37.5542501,
      "type": "place",
      "sid": 31583220,
      "address": "서울 마포구 동교로 83",
      "mcid": "DINING",
      "mcid_name": "음식점",
      "available": 1
    },
    {
      "base_dt": "20240806",
      "bookmark_id": 1720501264,
      "name": "선경회타운",
      "longitude": 127.704963,
      "latitude": 34.7217898,
      "type": "place",
      "sid": 16899641,
      "address": "전남 여수시 신월5길 48",
      "mcid": "DINING",
      "mcid_name": "음식점",
      "available": 1
    },
    {
      "base_dt": "20240806",
      "bookmark_id": 1704531119,
      "name": "보드레족 갈산본점",
      "longitude": 126.7224129,
      "latitude": 37.5169079,
      "type": "place",
      "sid": 31950258,
      "address": "인천 부평구 평천로305번길 15",
      "mcid": "DINING",
      "mcid_name": "음식점",
      "available": 1
    },
    {
      "base_dt": "20240806",
      "bookmark_id": 1704529429,
      "name": "넝쿨하눌가든",
      "longitude": 126.5322761,
      "latitude": 33.4760509,
      "type": "place",
      "sid": 16771684,
      "address": "제주 제주시 대원북길 21",
      "mcid": "DINING",
      "mcid_name": "음식점",
      "available": 1
    },
    {
      "base_dt": "20240806",
      "bookmark_id": 1704523497,
      "name": "만포면옥 본점",
      "longitude": 126.9714561,
      "latitude": 37.7169021,
      "type": "place",
      "sid": 12917600,
      "address": "경기 양주시 장흥면 호국로 513",
      "mcid": "DINING",
      "mcid_name": "음식점",
      "available": 1
    },
    {
      "base_dt": "20240806",
      "bookmark_id": 731542377,
      "name": "솥뚜껑 매운탕",
      "longitude": 127.0473842,
      "latitude": 36.4792555,
      "type": "place",
      "sid": 1902551996,
      "address": "충남 공주시 사곡면 아래안영골길 4",
      "mcid": "DINING",
      "mcid_name": "음식점",
      "available": 1
    },
    {
      "base_dt": "20240806",
      "bookmark_id": 1704514923,
      "name": "소울",
      "longitude": 126.984487,
      "latitude": 37.5453624,
      "type": "place",
      "sid": 1498888781,
      "address": "서울 용산구 신흥로26길 35",
      "mcid": "DINING",
      "mcid_name": "음식점",
      "available": 1
    },
    {
      "base_dt": "20240806",
      "bookmark_id": 1704513837,
      "name": "세꼬시",
      "longitude": 127.137991,
      "latitude": 37.533453,
      "type": "place",
      "sid": 18614990,
      "address": "서울 강동구 양재대로 1427",
      "mcid": "DINING",
      "mcid_name": "음식점",
      "available": 1
    },
    {
      "base_dt": "20240806",
      "bookmark_id": 1704512339,
      "name": "카페 숨",
      "longitude": 127.2279903,
      "latitude": 37.4553757,
      "type": "place",
      "sid": 1606239277,
      "address": "경기 광주시 남한산성면 오전길 108-11",
      "mcid": "CAFE",
      "mcid_name": "카페",
      "available": 1
    },
    {
      "base_dt": "20240806",
      "bookmark_id": 1698675149,
      "name": "토도스 창원가로수길점",
      "longitude": 128.6838346,
      "latitude": 35.2380784,
      "type": "place",
      "sid": 1315822211,
      "address": "경남 창원시 성산구 용호로 116",
      "mcid": "DINING",
      "mcid_name": "음식점",
      "available": 1
    },
    {
      "base_dt": "20240806",
      "bookmark_id": 1698671357,
      "name": "명문가시리식당",
      "longitude": 126.7708189,
      "latitude": 33.3528835,
      "type": "place",
      "sid": 13481036,
      "address": "제주 서귀포시 표선면 중산간동로 5218",
      "mcid": "DINING",
      "mcid_name": "음식점",
      "available": 1
    },
    {
      "base_dt": "20240806",
      "bookmark_id": 1698667291,
      "name": "거금특산품",
      "longitude": 127.1226863,
      "latitude": 34.4880106,
      "type": "place",
      "sid": 1157523920,
      "address": "전남 고흥군 금산면 거금로 715",
      "mcid": "DINING",
      "mcid_name": "음식점",
      "available": 1
    },
    {
      "base_dt": "20240806",
      "bookmark_id": 982745013,
      "name": "관산식당",
      "longitude": 127.2931623,
      "latitude": 34.6177106,
      "type": "place",
      "sid": 547047528,
      "address": "전남 고흥군 고흥읍 고흥로 1896",
      "mcid": "DINING",
      "mcid_name": "음식점",
      "available": 1
    },
    {
      "base_dt": "20240806",
      "bookmark_id": 1698657479,
      "name": "다온불백",
      "longitude": 128.6563164,
      "latitude": 35.150132,
      "type": "place",
      "sid": 1504795099,
      "address": "경남 창원시 진해구 충무로 52-1",
      "mcid": "DINING",
      "mcid_name": "음식점",
      "available": 1
    },
    {
      "base_dt": "20240806",
      "bookmark_id": 1698655733,
      "name": "엄마네돼지찌개",
      "longitude": 126.9161391,
      "latitude": 35.1437295,
      "type": "place",
      "sid": 19882323,
      "address": "광주 동구 문화전당로23번길 33",
      "mcid": "DINING",
      "mcid_name": "음식점",
      "available": 1
    },
    {
      "base_dt": "20240806",
      "bookmark_id": 1698652933,
      "name": "봉다리크랩",
      "longitude": 127.3083937,
      "latitude": 36.3900354,
      "type": "place",
      "sid": 1018939084,
      "address": "대전 유성구 반석로 53-18",
      "mcid": "DINING",
      "mcid_name": "음식점",
      "available": 1
    },
    {
      "base_dt": "20240806",
      "bookmark_id": 1694500582,
      "name": "원당쇠고기국밥",
      "longitude": 126.8535688,
      "latitude": 37.6474077,
      "type": "place",
      "sid": 31480518,
      "address": "경기 고양시 덕양구 서오릉로 850",
      "mcid": "DINING",
      "mcid_name": "음식점",
      "available": 1
    },
    {
      "base_dt": "20240806",
      "bookmark_id": 1694499348,
      "name": "더벤티 해운대마린시티점",
      "longitude": 129.1464702,
      "latitude": 35.1541914,
      "type": "place",
      "sid": 1954039413,
      "address": "부산 해운대구 마린시티3로 51",
      "mcid": "CAFE",
      "mcid_name": "카페",
      "available": 1
    },
    {
      "base_dt": "20240806",
      "bookmark_id": 1694498729,
      "name": "이가솜씨",
      "longitude": 129.1462798,
      "latitude": 35.1537506,
      "type": "place",
      "sid": 1268960974,
      "address": "부산 해운대구 마린시티3로 51",
      "mcid": "DINING",
      "mcid_name": "음식점",
      "available": 1
    },
    {
      "base_dt": "20240806",
      "bookmark_id": 1694496196,
      "name": "평양면옥",
      "longitude": 127.0475059,
      "latitude": 37.7310187,
      "type": "place",
      "sid": 11599752,
      "address": "경기 의정부시 평화로439번길 7",
      "mcid": "DINING",
      "mcid_name": "음식점",
      "available": 1
    },
    {
      "base_dt": "20240806",
      "bookmark_id": 1694493601,
      "name": "팔마",
      "longitude": 126.9696752,
      "latitude": 37.5777133,
      "type": "place",
      "sid": 1590979867,
      "address": "서울 종로구 자하문로5길 39",
      "mcid": "BAR",
      "mcid_name": "BAR",
      "available": 1
    },
    {
      "base_dt": "20240806",
      "bookmark_id": 1694490966,
      "name": "정담은보쌈 북촌점",
      "longitude": 126.9861281,
      "latitude": 37.5788057,
      "type": "place",
      "sid": 1102753757,
      "address": "서울 종로구 계동길 33-9",
      "mcid": "DINING",
      "mcid_name": "음식점",
      "available": 1
    },
    {
      "base_dt": "20240806",
      "bookmark_id": 1694485730,
      "name": "로칸다",
      "longitude": 128.6247679,
      "latitude": 35.8344893,
      "type": "place",
      "sid": 1542712985,
      "address": "대구 수성구 무학로27길 47",
      "mcid": "DINING",
      "mcid_name": "음식점",
      "available": 1
    },
    {
      "base_dt": "20240806",
      "bookmark_id": 1694480856,
      "name": "보리밥",
      "longitude": 129.2897802,
      "latitude": 35.4643709,
      "type": "place",
      "sid": 16523637,
      "address": "울산 울주군 청량읍 대복동천로 808-16",
      "mcid": "DINING",
      "mcid_name": "음식점",
      "available": 1
    },
    {
      "base_dt": "20240806",
      "bookmark_id": 1694479819,
      "name": "퍼스트레시피",
      "longitude": 126.9173591,
      "latitude": 35.1465644,
      "type": "place",
      "sid": 1375826896,
      "address": "광주 동구 충장로안길 44-1",
      "mcid": "DINING",
      "mcid_name": "음식점",
      "available": 1
    },
    {
      "base_dt": "20240806",
      "bookmark_id": 1694477632,
      "name": "SAVOY",
      "longitude": 129.0602272,
      "latitude": 35.1566764,
      "type": "place",
      "sid": 1192271700,
      "address": "부산 부산진구 서전로10번길 23-1",
      "mcid": "BAR",
      "mcid_name": "BAR",
      "available": 1
    },
    {
      "base_dt": "20240806",
      "bookmark_id": 1694473445,
      "name": "강촌마을",
      "longitude": 126.762525,
      "latitude": 36.0188,
      "type": "place",
      "sid": 17190755,
      "address": "전북 군산시 성산면 철새로 90",
      "mcid": "DINING",
      "mcid_name": "음식점",
      "available": 1
    },
    {
      "base_dt": "20240806",
      "bookmark_id": 1694470657,
      "name": "대한다원보성녹차밭",
      "longitude": 127.0789125,
      "latitude": 34.7165012,
      "type": "place",
      "sid": 19707383,
      "address": "전남 보성군 보성읍 녹차로 763-43",
      "mcid": "TRAVEL",
      "mcid_name": "여행",
      "available": 1
    },
    {
      "base_dt": "20240806",
      "bookmark_id": 1694469199,
      "name": "합천국밥집",
      "longitude": 129.1112326,
      "latitude": 35.1112689,
      "type": "place",
      "sid": 11872316,
      "address": "부산 남구 용호로 235",
      "mcid": "DINING",
      "mcid_name": "음식점",
      "available": 1
    },
    {
      "base_dt": "20240806",
      "bookmark_id": 1050576873,
      "name": "옥수숯불구이",
      "longitude": 127.374709,
      "latitude": 36.3288454,
      "type": "place",
      "sid": 36898207,
      "address": "대전 서구 변동중로 49",
      "mcid": "DINING",
      "mcid_name": "음식점",
      "available": 1
    },
    {
      "base_dt": "20240806",
      "bookmark_id": 1694467144,
      "name": "고기리막국수",
      "longitude": 127.0400912,
      "latitude": 37.3599967,
      "type": "place",
      "sid": 31186578,
      "address": "경기 용인시 수지구 이종무로 157",
      "mcid": "DINING",
      "mcid_name": "음식점",
      "available": 1
    },
    {
      "base_dt": "20240806",
      "bookmark_id": 1694464765,
      "name": "조조칼국수 광교점",
      "longitude": 127.0590119,
      "latitude": 37.280645,
      "type": "place",
      "sid": 1194803557,
      "address": "경기 수원시 영통구 광교호수공원로 277",
      "mcid": "DINING",
      "mcid_name": "음식점",
      "available": 1
    },
    {
      "base_dt": "20240806",
      "bookmark_id": 1694462644,
      "name": "갈십리",
      "longitude": 127.0404254,
      "latitude": 37.5589509,
      "type": "place",
      "sid": 1800066032,
      "address": "서울 성동구 마조로 15-11",
      "mcid": "CAFE",
      "mcid_name": "카페",
      "available": 1
    },
    {
      "base_dt": "20240806",
      "bookmark_id": 1296634359,
      "name": "거제보재기집",
      "longitude": 128.7120337,
      "latitude": 34.8307747,
      "type": "place",
      "sid": 33689501,
      "address": "경남 거제시 일운면 지세포해안로 175",
      "mcid": "DINING",
      "mcid_name": "음식점",
      "available": 1
    },
    {
      "base_dt": "20240806",
      "bookmark_id": 1694460836,
      "name": "일품명가",
      "longitude": 127.4880128,
      "latitude": 34.9870176,
      "type": "place",
      "sid": 17134270,
      "address": "전남 순천시 중앙로 475",
      "mcid": "DINING",
      "mcid_name": "음식점",
      "available": 1
    },
    {
      "base_dt": "20240806",
      "bookmark_id": 1694458533,
      "name": "소치자연횟집",
      "longitude": 127.7674907,
      "latitude": 34.8071572,
      "type": "place",
      "sid": 17008849,
      "address": "전남 여수시 신덕1길 46-1",
      "mcid": "DINING",
      "mcid_name": "음식점",
      "available": 1
    },
    {
      "base_dt": "20240806",
      "bookmark_id": 1694456836,
      "name": "여수갓육고 순천본점",
      "longitude": 127.5195178,
      "latitude": 34.9564473,
      "type": "place",
      "sid": 1074838421,
      "address": "전남 순천시 남신월4길 7",
      "mcid": "DINING",
      "mcid_name": "음식점",
      "available": 1
    },
    {
      "base_dt": "20240806",
      "bookmark_id": 1694455808,
      "name": "강진식육식당",
      "longitude": 126.910811,
      "latitude": 35.1702665,
      "type": "place",
      "sid": 16152807,
      "address": "광주 북구 우치로27번길 4",
      "mcid": "DINING",
      "mcid_name": "음식점",
      "available": 1
    },
    {
      "base_dt": "20240806",
      "bookmark_id": 1694448045,
      "name": "보자기",
      "longitude": 126.8803422,
      "latitude": 35.2486883,
      "type": "place",
      "sid": 13477243,
      "address": "전남 담양군 대전면 신룡길 73",
      "mcid": "DINING",
      "mcid_name": "음식점",
      "available": 1
    },
    {
      "base_dt": "20240806",
      "bookmark_id": 1694445874,
      "name": "너나들이정원",
      "longitude": 126.6950813,
      "latitude": 35.002043,
      "type": "place",
      "sid": 1631604060,
      "address": "전남 나주시 구진포로 297",
      "mcid": "DINING",
      "mcid_name": "음식점",
      "available": 1
    },
    {
      "base_dt": "20240806",
      "bookmark_id": 1694441333,
      "name": "탑골가든",
      "longitude": 127.7072809,
      "latitude": 37.7504276,
      "type": "place",
      "sid": 31047425,
      "address": "강원 춘천시 남산면 김유정로 427-12",
      "mcid": "DINING",
      "mcid_name": "음식점",
      "available": 1
    },
    {
      "base_dt": "20240806",
      "bookmark_id": 1694439806,
      "name": "참한식",
      "longitude": 128.580397,
      "latitude": 35.2050729,
      "type": "place",
      "sid": 15267319,
      "address": "경상남도 창원시 마산합포구 오동동",
      "mcid": "DINING",
      "mcid_name": "음식점",
      "available": 1
    },
    {
      "base_dt": "20240806",
      "bookmark_id": 1694437958,
      "name": "팔팔소곱창",
      "longitude": 126.8459195,
      "latitude": 35.146432,
      "type": "place",
      "sid": 37003255,
      "address": "광주 서구 상무화원로32번길 29-9",
      "mcid": "DINING",
      "mcid_name": "음식점",
      "available": 1
    },
    {
      "base_dt": "20240806",
      "bookmark_id": 1694435659,
      "name": "도이식탁",
      "longitude": 127.3455701,
      "latitude": 36.3588314,
      "type": "place",
      "sid": 1936101695,
      "address": "대전 유성구 문화원로 86",
      "mcid": "DINING",
      "mcid_name": "음식점",
      "available": 1
    },
    {
      "base_dt": "20240806",
      "bookmark_id": 1682808885,
      "name": "라쎄종",
      "longitude": 127.2612076,
      "latitude": 36.4877894,
      "type": "place",
      "sid": 1500436808,
      "address": "세종 나성로 96",
      "mcid": "DINING",
      "mcid_name": "음식점",
      "available": 1
    },
    {
      "base_dt": "20240806",
      "bookmark_id": 1682800832,
      "name": "낙산진면옥",
      "longitude": 128.626702,
      "latitude": 38.1156761,
      "type": "place",
      "sid": 1023628568,
      "address": "강원 양양군 주청1길 30",
      "mcid": "DINING",
      "mcid_name": "음식점",
      "available": 1
    },
    {
      "base_dt": "20240806",
      "bookmark_id": 1512205458,
      "name": "때깔로무역",
      "longitude": 127.8370661,
      "latitude": 34.8076723,
      "type": "place",
      "sid": 1075573352,
      "address": "경남 남해군 서면 남서대로1687번길 55",
      "mcid": "DINING",
      "mcid_name": "음식점",
      "available": 1
    },
    {
      "base_dt": "20240806",
      "bookmark_id": 1678171613,
      "name": "중앙탑메밀마당",
      "longitude": 127.8643143,
      "latitude": 37.0175598,
      "type": "place",
      "sid": 11817590,
      "address": "충북 충주시",
      "mcid": "DINING",
      "mcid_name": "음식점",
      "available": 1
    },
    {
      "base_dt": "20240806",
      "bookmark_id": 1675878653,
      "name": "버드나무도토리묵밥집",
      "longitude": 127.4534629,
      "latitude": 37.2086466,
      "type": "place",
      "sid": 1198062639,
      "address": "경기 이천시 진상미로 1793",
      "mcid": "DINING",
      "mcid_name": "음식점",
      "available": 1
    },
    {
      "base_dt": "20240806",
      "bookmark_id": 972075310,
      "name": "나눌터",
      "longitude": 127.5140375,
      "latitude": 34.9326179,
      "type": "place",
      "sid": 20353243,
      "address": "전남 순천시 팔마1길 4",
      "mcid": "DINING",
      "mcid_name": "음식점",
      "available": 1
    },
    {
      "base_dt": "20240806",
      "bookmark_id": 1675873427,
      "name": "아모르디오 본점",
      "longitude": 127.513285,
      "latitude": 34.932516,
      "type": "place",
      "sid": 20083820,
      "address": "전남 순천시 팔마1길 9-53",
      "mcid": "CAFE",
      "mcid_name": "카페",
      "available": 1
    },
    {
      "base_dt": "20240806",
      "bookmark_id": 1675872461,
      "name": "리버972",
      "longitude": 128.0238581,
      "latitude": 37.7394542,
      "type": "place",
      "sid": 1865096358,
      "address": "강원 홍천군 화촌면 답연밭길 56-8",
      "mcid": "DINING",
      "mcid_name": "음식점",
      "available": 1
    },
    {
      "base_dt": "20240806",
      "bookmark_id": 1675870691,
      "name": "고자리냉면칼만두 본점",
      "longitude": 126.843153,
      "latitude": 37.6645533,
      "type": "place",
      "sid": 19877725,
      "address": "경기 고양시 덕양구 호국로 915-45",
      "mcid": "DINING",
      "mcid_name": "음식점",
      "available": 1
    },
    {
      "base_dt": "20240806",
      "bookmark_id": 1675869022,
      "name": "매헌 1935",
      "longitude": 126.4846452,
      "latitude": 37.7441848,
      "type": "place",
      "sid": 1173056288,
      "address": "인천 강화군 강화읍 신문길 25",
      "mcid": "DINING",
      "mcid_name": "음식점",
      "available": 1
    },
    {
      "base_dt": "20240806",
      "bookmark_id": 1675867836,
      "name": "몰돗",
      "longitude": 126.6578096,
      "latitude": 33.5436038,
      "type": "place",
      "sid": 1429479801,
      "address": "제주 제주시 조천읍 함대로 2",
      "mcid": "DINING",
      "mcid_name": "음식점",
      "available": 1
    },
    {
      "base_dt": "20240806",
      "bookmark_id": 1675866711,
      "name": "삼원 옥수해천탕",
      "longitude": 127.0116447,
      "latitude": 37.5402137,
      "type": "place",
      "sid": 37755930,
      "address": "서울 성동구 독서당로 156",
      "mcid": "DINING",
      "mcid_name": "음식점",
      "available": 1
    },
    {
      "base_dt": "20240806",
      "bookmark_id": 1675864265,
      "name": "사랑채국시집",
      "longitude": 129.2058968,
      "latitude": 35.8502518,
      "type": "place",
      "sid": 11865833,
      "address": "경북 경주시 북문로 31",
      "mcid": "DINING",
      "mcid_name": "음식점",
      "available": 1
    },
    {
      "base_dt": "20240806",
      "bookmark_id": 1663064404,
      "name": "뜨랑한우 노은본점",
      "longitude": 127.3208743,
      "latitude": 36.3674089,
      "type": "place",
      "sid": 55919145,
      "address": "대전 유성구 노은동로75번길 48",
      "mcid": "DINING",
      "mcid_name": "음식점",
      "available": 1
    },
    {
      "base_dt": "20240806",
      "bookmark_id": 1663064012,
      "name": "달빛참치대전유성점",
      "longitude": 127.3407533,
      "latitude": 36.3549796,
      "type": "place",
      "sid": 36063553,
      "address": "대전 유성구 온천로 26",
      "mcid": "DINING",
      "mcid_name": "음식점",
      "available": 1
    },
    {
      "base_dt": "20240806",
      "bookmark_id": 1637260732,
      "name": "서울치킨",
      "longitude": 127.4230749,
      "latitude": 36.3259951,
      "type": "place",
      "sid": 35262372,
      "address": "대전 중구 중앙로112번길 34",
      "mcid": "DINING",
      "mcid_name": "음식점",
      "available": 1
    },
    {
      "base_dt": "20240806",
      "bookmark_id": 1663063383,
      "name": "연타발 대전유성점",
      "longitude": 127.34105,
      "latitude": 36.3548112,
      "type": "place",
      "sid": 20515644,
      "address": "대전 유성구 계룡로87번길 16",
      "mcid": "DINING",
      "mcid_name": "음식점",
      "available": 1
    },
    {
      "base_dt": "20240806",
      "bookmark_id": 1663062529,
      "name": "장어가",
      "longitude": 127.3061955,
      "latitude": 36.3193373,
      "type": "place",
      "sid": 15937469,
      "address": "대전 유성구 교촌대정로203번길 10",
      "mcid": "DINING",
      "mcid_name": "음식점",
      "available": 1
    },
    {
      "base_dt": "20240806",
      "bookmark_id": 1663060536,
      "name": "장홍김밥",
      "longitude": 128.5904268,
      "latitude": 38.2041476,
      "type": "place",
      "sid": 1389473370,
      "address": "강원 속초시 중앙로147번길 16",
      "mcid": "DINING",
      "mcid_name": "음식점",
      "available": 1
    },
    {
      "base_dt": "20240806",
      "bookmark_id": 1663060190,
      "name": "25시참숯구이",
      "longitude": 126.8788943,
      "latitude": 35.2071597,
      "type": "place",
      "sid": 16247697,
      "address": "광주 북구",
      "mcid": "DINING",
      "mcid_name": "음식점",
      "available": 1
    },
    {
      "base_dt": "20240806",
      "bookmark_id": 1663059360,
      "name": "풍경",
      "longitude": 128.7227508,
      "latitude": 35.8157825,
      "type": "place",
      "sid": 37919030,
      "address": "경북 경산시 삼성현로 188-5",
      "mcid": "DINING",
      "mcid_name": "음식점",
      "available": 1
    },
    {
      "base_dt": "20240806",
      "bookmark_id": 1663058031,
      "name": "등촌샤브칼국수 방이본점",
      "longitude": 127.1080083,
      "latitude": 37.5148638,
      "type": "place",
      "sid": 1180736872,
      "address": "서울 송파구 올림픽로30길 10",
      "mcid": "DINING",
      "mcid_name": "음식점",
      "available": 1
    },
    {
      "base_dt": "20240806",
      "bookmark_id": 1663057458,
      "name": "상아식당",
      "longitude": 127.7128126,
      "latitude": 34.725234,
      "type": "place",
      "sid": 13576067,
      "address": "전남 여수시 어항단지로 21",
      "mcid": "DINING",
      "mcid_name": "음식점",
      "available": 1
    },
    {
      "base_dt": "20240806",
      "bookmark_id": 1663056414,
      "name": "의성통닭",
      "longitude": 128.6030837,
      "latitude": 35.8448578,
      "type": "place",
      "sid": 15978807,
      "address": "대구 남구 봉덕로 115",
      "mcid": "DINING",
      "mcid_name": "음식점",
      "available": 1
    },
    {
      "base_dt": "20240806",
      "bookmark_id": 1663055706,
      "name": "로얄테라스가든",
      "longitude": 127.1025625,
      "latitude": 37.5125702,
      "type": "place",
      "sid": 1222198399,
      "address": "서울 송파구 올림픽로 300",
      "mcid": "DINING",
      "mcid_name": "음식점",
      "available": 1
    },
    {
      "base_dt": "20240806",
      "bookmark_id": 248999787,
      "name": "산장가든",
      "longitude": 127.2618953,
      "latitude": 36.5999591,
      "type": "place",
      "sid": 11664351,
      "address": "세종특별자치 연서면 고복리 32",
      "mcid": "DINING",
      "mcid_name": "음식점",
      "available": 1
    },
    {
      "base_dt": "20240806",
      "bookmark_id": 1663052627,
      "name": "그여자의 밥상",
      "longitude": 126.9043723,
      "latitude": 35.1779283,
      "type": "place",
      "sid": 1115995409,
      "address": "광주 북구 설죽로214번길 123",
      "mcid": "DINING",
      "mcid_name": "음식점",
      "available": 1
    },
    {
      "base_dt": "20240806",
      "bookmark_id": 1663050994,
      "name": "키츠네야",
      "longitude": 126.6048973,
      "latitude": 36.3462989,
      "type": "place",
      "sid": 1332902229,
      "address": "충남 보령시 작은오랏5길 31",
      "mcid": "DINING",
      "mcid_name": "음식점",
      "available": 1
    },
    {
      "base_dt": "20240806",
      "bookmark_id": 1663050617,
      "name": "야키토리묵 신사점",
      "longitude": 127.0212754,
      "latitude": 37.5176509,
      "type": "place",
      "sid": 1265043186,
      "address": "서울 강남구 강남대로152길 23",
      "mcid": "DINING",
      "mcid_name": "음식점",
      "available": 1
    },
    {
      "base_dt": "20240806",
      "bookmark_id": 1663050258,
      "name": "도가네",
      "longitude": 126.80333,
      "latitude": 37.750185,
      "type": "place",
      "sid": 11838240,
      "address": "경기 파주시 통일로 412",
      "mcid": "DINING",
      "mcid_name": "음식점",
      "available": 1
    },
    {
      "base_dt": "20240806",
      "bookmark_id": 1663049887,
      "name": "스티머스 팩토리샵",
      "longitude": 127.0074374,
      "latitude": 37.4936437,
      "type": "place",
      "sid": 1193127253,
      "address": "서울 서초구 서초대로41길 19",
      "mcid": "CAFE",
      "mcid_name": "카페",
      "available": 1
    },
    {
      "base_dt": "20240806",
      "bookmark_id": 1663049350,
      "name": "중화면가",
      "longitude": 128.6932047,
      "latitude": 35.8400948,
      "type": "place",
      "sid": 529593031,
      "address": "대구 수성구 시지로 33",
      "mcid": "DINING",
      "mcid_name": "음식점",
      "available": 1
    },
    {
      "base_dt": "20240806",
      "bookmark_id": 531903164,
      "name": "설천순대국밥",
      "longitude": 127.3805116,
      "latitude": 36.3540477,
      "type": "place",
      "sid": 16233808,
      "address": "대전 서구 둔산로51번길 66",
      "mcid": "DINING",
      "mcid_name": "음식점",
      "available": 1
    },
    {
      "base_dt": "20240806",
      "bookmark_id": 1663048340,
      "name": "사고네 연탄불고기 김포운양점",
      "longitude": 126.6851403,
      "latitude": 37.654907,
      "type": "place",
      "sid": 1051553188,
      "address": "경기 김포시 김포한강11로 288-37",
      "mcid": "DINING",
      "mcid_name": "음식점",
      "available": 1
    },
    {
      "base_dt": "20240806",
      "bookmark_id": 1663042714,
      "name": "국밥사랑",
      "longitude": 126.7353328,
      "latitude": 37.7290962,
      "type": "place",
      "sid": 1349894132,
      "address": "경기 파주시 청암로17번길 25",
      "mcid": "DINING",
      "mcid_name": "음식점",
      "available": 1
    },
    {
      "base_dt": "20240806",
      "bookmark_id": 1663041854,
      "name": "해물명가",
      "longitude": 127.0193737,
      "latitude": 37.5547418,
      "type": "place",
      "sid": 18780788,
      "address": "서울 성동구 금호로11길 4",
      "mcid": "DINING",
      "mcid_name": "음식점",
      "available": 1
    },
    {
      "base_dt": "20240806",
      "bookmark_id": 1663041461,
      "name": "난타해물왕칼국수&쭈꾸미광적점",
      "longitude": 126.9794258,
      "latitude": 37.8307909,
      "type": "place",
      "sid": 1096360353,
      "address": "경기 양주시 광적로 138",
      "mcid": "DINING",
      "mcid_name": "음식점",
      "available": 1
    },
    {
      "base_dt": "20240806",
      "bookmark_id": 1663040962,
      "name": "금자매식당",
      "longitude": 126.1764537,
      "latitude": 33.3058304,
      "type": "place",
      "sid": 1550707819,
      "address": "제주 제주시 용고로 154",
      "mcid": "DINING",
      "mcid_name": "음식점",
      "available": 1
    },
    {
      "base_dt": "20240806",
      "bookmark_id": 1663040602,
      "name": "황금오리",
      "longitude": 127.1361093,
      "latitude": 37.235308,
      "type": "place",
      "sid": 19134950,
      "address": "경기 용인시 기흥구 지삼로250번길 12",
      "mcid": "DINING",
      "mcid_name": "음식점",
      "available": 1
    },
    {
      "base_dt": "20240806",
      "bookmark_id": 1636019777,
      "name": "한방이있는족발",
      "longitude": 129.0237552,
      "latitude": 35.0939357,
      "type": "place",
      "sid": 38287096,
      "address": "부산 서구 충무대로 261",
      "mcid": "DINING",
      "mcid_name": "음식점",
      "available": 1
    },
    {
      "base_dt": "20240806",
      "bookmark_id": 1635696498,
      "name": "일산칼국수본점",
      "longitude": 126.786124,
      "latitude": 37.6704822,
      "type": "place",
      "sid": 11727528,
      "address": "경기 고양시 일산동구 경의로 467",
      "mcid": "DINING",
      "mcid_name": "음식점",
      "available": 1
    },
    {
      "base_dt": "20240806",
      "bookmark_id": 1635694618,
      "name": "한남동한방통닭",
      "longitude": 127.005528,
      "latitude": 37.531577,
      "type": "place",
      "sid": 32794391,
      "address": "서울 용산구 대사관로34길 38",
      "mcid": "DINING",
      "mcid_name": "음식점",
      "available": 1
    },
    {
      "base_dt": "20240806",
      "bookmark_id": 1635692551,
      "name": "서관면옥 교대본점",
      "longitude": 127.0172896,
      "latitude": 37.4940068,
      "type": "place",
      "sid": 1438690191,
      "address": "서울 서초구 서초대로56길 11",
      "mcid": "DINING",
      "mcid_name": "음식점",
      "available": 1
    },
    {
      "base_dt": "20240806",
      "bookmark_id": 1635691461,
      "name": "파주연천축협한우마을",
      "longitude": 126.9164739,
      "latitude": 37.9568983,
      "type": "place",
      "sid": 1724165443,
      "address": "경기 파주시 적성면 솥뒤로 32-2",
      "mcid": "DINING",
      "mcid_name": "음식점",
      "available": 1
    },
    {
      "base_dt": "20240806",
      "bookmark_id": 1635687618,
      "name": "키친온유",
      "longitude": 128.5908865,
      "latitude": 38.2133763,
      "type": "place",
      "sid": 1455479684,
      "address": "강원 속초시 영랑로2길 22",
      "mcid": "DINING",
      "mcid_name": "음식점",
      "available": 1
    },
    {
      "base_dt": "20240806",
      "bookmark_id": 1635684444,
      "name": "초당고부순두부",
      "longitude": 128.9183021,
      "latitude": 37.7846037,
      "type": "place",
      "sid": 33133830,
      "address": "강원 강릉시 강릉대로587번길 17",
      "mcid": "DINING",
      "mcid_name": "음식점",
      "available": 1
    },
    {
      "base_dt": "20240806",
      "bookmark_id": 1635683483,
      "name": "아이러브펍",
      "longitude": 127.031051,
      "latitude": 37.4953356,
      "type": "place",
      "sid": 21094048,
      "address": "서울 강남구 테헤란로4길 45",
      "mcid": "BAR",
      "mcid_name": "BAR",
      "available": 1
    },
    {
      "base_dt": "20240806",
      "bookmark_id": 1635681608,
      "name": "대숲골농원",
      "longitude": 127.5077753,
      "latitude": 34.9042667,
      "type": "place",
      "sid": 17101643,
      "address": "전남 순천시 학동길 54",
      "mcid": "DINING",
      "mcid_name": "음식점",
      "available": 1
    },
    {
      "base_dt": "20240806",
      "bookmark_id": 1635679365,
      "name": "경포순두부",
      "longitude": 128.891687,
      "latitude": 37.7863471,
      "type": "place",
      "sid": 11821912,
      "address": "강원 강릉시 운정길 131",
      "mcid": "DINING",
      "mcid_name": "음식점",
      "available": 1
    },
    {
      "base_dt": "20240806",
      "bookmark_id": 1635677639,
      "name": "강릉 오션뷰 헤렌하우스",
      "longitude": 128.9468622,
      "latitude": 37.7729225,
      "type": "place",
      "sid": 11783369,
      "address": "강원 강릉시 창해로14번길 16",
      "mcid": "ACCOMMODATION",
      "mcid_name": "숙박",
      "available": 1
    },
    {
      "base_dt": "20240806",
      "bookmark_id": 1635676473,
      "name": "부산에뜬고등어 사상점",
      "longitude": 128.9784675,
      "latitude": 35.1622056,
      "type": "place",
      "sid": 1479073804,
      "address": "부산 사상구 광장로20번길 10",
      "mcid": "DINING",
      "mcid_name": "음식점",
      "available": 1
    },
    {
      "base_dt": "20240806",
      "bookmark_id": 1635675066,
      "name": "중화원",
      "longitude": 127.0328578,
      "latitude": 37.7601499,
      "type": "place",
      "sid": 1347628173,
      "address": "경기 의정부시 진등로 24",
      "mcid": "DINING",
      "mcid_name": "음식점",
      "available": 1
    },
    {
      "base_dt": "20240806",
      "bookmark_id": 1635673827,
      "name": "서지초가뜰",
      "longitude": 128.8809992,
      "latitude": 37.7910471,
      "type": "place",
      "sid": 1439249340,
      "address": "강원 강릉시 난곡길76번길 43-8",
      "mcid": "CAFE",
      "mcid_name": "카페",
      "available": 1
    },
    {
      "base_dt": "20240806",
      "bookmark_id": 1635670666,
      "name": "과객",
      "longitude": 128.8417382,
      "latitude": 37.7347928,
      "type": "place",
      "sid": 34537489,
      "address": "강원 강릉시 성산면 갈매간길 8-3",
      "mcid": "CAFE",
      "mcid_name": "카페",
      "available": 1
    },
    {
      "base_dt": "20240806",
      "bookmark_id": 1635668973,
      "name": "우일면옥 신관",
      "longitude": 127.0913467,
      "latitude": 37.7961359,
      "type": "place",
      "sid": 1767635839,
      "address": "경기 양주시 송랑로 116-32",
      "mcid": "DINING",
      "mcid_name": "음식점",
      "available": 1
    },
    {
      "base_dt": "20240806",
      "bookmark_id": 1635666407,
      "name": "설성식당",
      "longitude": 126.8168644,
      "latitude": 34.7128586,
      "type": "place",
      "sid": 11717798,
      "address": "전남 강진군 병영면 병영성로 92",
      "mcid": "DINING",
      "mcid_name": "음식점",
      "available": 1
    },
    {
      "base_dt": "20240806",
      "bookmark_id": 1627167993,
      "name": "송도 궁중삼계탕",
      "longitude": 126.6572583,
      "latitude": 37.4158889,
      "type": "place",
      "sid": 11717140,
      "address": "인천 연수구 청량로 84",
      "mcid": "DINING",
      "mcid_name": "음식점",
      "available": 1
    },
    {
      "base_dt": "20240806",
      "bookmark_id": 1627164910,
      "name": "부산안면옥",
      "longitude": 128.5989685,
      "latitude": 35.8706355,
      "type": "place",
      "sid": 12009979,
      "address": "대구 중구 국채보상로125길 4",
      "mcid": "DINING",
      "mcid_name": "음식점",
      "available": 1
    },
    {
      "base_dt": "20240806",
      "bookmark_id": 1627162276,
      "name": "커피가게동경",
      "longitude": 126.9035552,
      "latitude": 37.5559511,
      "type": "place",
      "sid": 33152234,
      "address": "서울 마포구 망원로6길 21",
      "mcid": "CAFE",
      "mcid_name": "카페",
      "available": 1
    },
    {
      "base_dt": "20240806",
      "bookmark_id": 1622168155,
      "name": "전통나주곰탕",
      "longitude": 127.6988984,
      "latitude": 34.9401909,
      "type": "place",
      "sid": 16684730,
      "address": "전남 광양시 중마청룡길 6",
      "mcid": "DINING",
      "mcid_name": "음식점",
      "available": 1
    },
    {
      "base_dt": "20240806",
      "bookmark_id": 1621416943,
      "name": "보백관 본점",
      "longitude": 128.4956874,
      "latitude": 35.8719571,
      "type": "place",
      "sid": 36662939,
      "address": "대구 달성군 서재본길 11",
      "mcid": "DINING",
      "mcid_name": "음식점",
      "available": 1
    },